[
  {
    "category": "burglary",
    "street": "On or near The Street",
    "lat": 51.36005,
    "lng": -2.663072,
    "month": "2026-03"
  },
  {
    "category": "shoplifting",
    "street": "On or near Stoke Hill",
    "lat": 51.347631,
    "lng": -2.634046,
    "month": "2026-03"
  },
  {
    "category": "violent-crime",
    "street": "On or near Bilbie Road",
    "lat": 51.352743,
    "lng": -2.63146,
    "month": "2026-03"
  },
  {
    "category": "anti-social-behaviour",
    "street": "On or near Battle Lane",
    "lat": 51.366685,
    "lng": -2.617043,
    "month": "2026-03"
  },
  {
    "category": "burglary",
    "street": "On or near Tunbridge Road",
    "lat": 51.363373,
    "lng": -2.609056,
    "month": "2026-03"
  },
  {
    "category": "shoplifting",
    "street": "On or near South Parade",
    "lat": 51.365813,
    "lng": -2.610266,
    "month": "2026-03"
  },
  {
    "category": "shoplifting",
    "street": "On or near Supermarket",
    "lat": 51.36584,
    "lng": -2.611165,
    "month": "2026-03"
  },
  {
    "category": "anti-social-behaviour",
    "street": "On or near The Drive",
    "lat": 51.357027,
    "lng": -2.578453,
    "month": "2026-03"
  },
  {
    "category": "burglary",
    "street": "On or near The Drive",
    "lat": 51.357027,
    "lng": -2.578453,
    "month": "2026-03"
  },
  {
    "category": "criminal-damage-arson",
    "street": "On or near The Drive",
    "lat": 51.357027,
    "lng": -2.578453,
    "month": "2026-03"
  },
  {
    "category": "violent-crime",
    "street": "On or near Birchwood Lane",
    "lat": 51.360757,
    "lng": -2.541287,
    "month": "2026-03"
  },
  {
    "category": "anti-social-behaviour",
    "street": "On or near Orchard Close",
    "lat": 51.387901,
    "lng": -2.684284,
    "month": "2026-03"
  },
  {
    "category": "anti-social-behaviour",
    "street": "On or near Old Hill",
    "lat": 51.380559,
    "lng": -2.678858,
    "month": "2026-03"
  },
  {
    "category": "burglary",
    "street": "On or near Upper Town Lane",
    "lat": 51.387994,
    "lng": -2.683725,
    "month": "2026-03"
  },
  {
    "category": "criminal-damage-arson",
    "street": "On or near West Lane",
    "lat": 51.386579,
    "lng": -2.688848,
    "month": "2026-03"
  },
  {
    "category": "criminal-damage-arson",
    "street": "On or near Stanshalls Drive",
    "lat": 51.387372,
    "lng": -2.688673,
    "month": "2026-03"
  },
  {
    "category": "other-crime",
    "street": "On or near Felton Lane",
    "lat": 51.385154,
    "lng": -2.680492,
    "month": "2026-03"
  },
  {
    "category": "drugs",
    "street": "On or near The Ricklands",
    "lat": 51.378739,
    "lng": -2.660684,
    "month": "2026-03"
  },
  {
    "category": "other-theft",
    "street": "On or near Parking Area",
    "lat": 51.370025,
    "lng": -2.638162,
    "month": "2026-03"
  },
  {
    "category": "vehicle-crime",
    "street": "On or near Church Rise",
    "lat": 51.38258,
    "lng": -2.658856,
    "month": "2026-03"
  },
  {
    "category": "violent-crime",
    "street": "On or near Church Rise",
    "lat": 51.38258,
    "lng": -2.658856,
    "month": "2026-03"
  },
  {
    "category": "violent-crime",
    "street": "On or near High Street",
    "lat": 51.382428,
    "lng": -2.661771,
    "month": "2026-03"
  },
  {
    "category": "other-crime",
    "street": "On or near High Street",
    "lat": 51.382428,
    "lng": -2.661771,
    "month": "2026-03"
  },
  {
    "category": "anti-social-behaviour",
    "street": "On or near Peppershells Lane",
    "lat": 51.381882,
    "lng": -2.512381,
    "month": "2026-03"
  },
  {
    "category": "other-theft",
    "street": "On or near Mill Lane",
    "lat": 51.377704,
    "lng": -2.53005,
    "month": "2026-03"
  },
  {
    "category": "violent-crime",
    "street": "On or near Slate Lane",
    "lat": 51.388632,
    "lng": -2.531369,
    "month": "2026-03"
  },
  {
    "category": "criminal-damage-arson",
    "street": "On or near Bristol International Airport",
    "lat": 51.382831,
    "lng": -2.718594,
    "month": "2026-03"
  },
  {
    "category": "other-theft",
    "street": "On or near Downside Road",
    "lat": 51.387847,
    "lng": -2.704043,
    "month": "2026-03"
  },
  {
    "category": "possession-of-weapons",
    "street": "On or near Downside Road",
    "lat": 51.387847,
    "lng": -2.704043,
    "month": "2026-03"
  },
  {
    "category": "public-order",
    "street": "On or near Downside Road",
    "lat": 51.390494,
    "lng": -2.722739,
    "month": "2026-03"
  },
  {
    "category": "public-order",
    "street": "On or near Bristol International Airport",
    "lat": 51.382831,
    "lng": -2.718594,
    "month": "2026-03"
  },
  {
    "category": "public-order",
    "street": "On or near Downside Road",
    "lat": 51.387847,
    "lng": -2.704043,
    "month": "2026-03"
  },
  {
    "category": "robbery",
    "street": "On or near Bristol International Airport",
    "lat": 51.382831,
    "lng": -2.718594,
    "month": "2026-03"
  },
  {
    "category": "vehicle-crime",
    "street": "On or near Downside Road",
    "lat": 51.387847,
    "lng": -2.704043,
    "month": "2026-03"
  },
  {
    "category": "violent-crime",
    "street": "On or near Parking Area",
    "lat": 51.385858,
    "lng": -2.712842,
    "month": "2026-03"
  },
  {
    "category": "violent-crime",
    "street": "On or near Airport/airfield",
    "lat": 51.383797,
    "lng": -2.710696,
    "month": "2026-03"
  },
  {
    "category": "violent-crime",
    "street": "On or near Parking Area",
    "lat": 51.385858,
    "lng": -2.712842,
    "month": "2026-03"
  },
  {
    "category": "violent-crime",
    "street": "On or near Parking Area",
    "lat": 51.385858,
    "lng": -2.712842,
    "month": "2026-03"
  },
  {
    "category": "violent-crime",
    "street": "On or near Parking Area",
    "lat": 51.385858,
    "lng": -2.712842,
    "month": "2026-03"
  },
  {
    "category": "violent-crime",
    "street": "On or near Downside Road",
    "lat": 51.387847,
    "lng": -2.704043,
    "month": "2026-03"
  },
  {
    "category": "other-theft",
    "street": "On or near Barns Close",
    "lat": 51.407512,
    "lng": -2.676525,
    "month": "2026-03"
  },
  {
    "category": "vehicle-crime",
    "street": "On or near Kingston Lane",
    "lat": 51.388113,
    "lng": -2.666193,
    "month": "2026-03"
  },
  {
    "category": "violent-crime",
    "street": "On or near Sports/recreation Area",
    "lat": 51.401428,
    "lng": -2.675517,
    "month": "2026-03"
  },
  {
    "category": "burglary",
    "street": "On or near Church Road",
    "lat": 51.398227,
    "lng": -2.635766,
    "month": "2026-03"
  },
  {
    "category": "criminal-damage-arson",
    "street": "On or near Church Road",
    "lat": 51.398227,
    "lng": -2.635766,
    "month": "2026-03"
  },
  {
    "category": "drugs",
    "street": "On or near Church Road",
    "lat": 51.398227,
    "lng": -2.635766,
    "month": "2026-03"
  },
  {
    "category": "drugs",
    "street": "On or near Dundry Lane",
    "lat": 51.401909,
    "lng": -2.643321,
    "month": "2026-03"
  },
  {
    "category": "violent-crime",
    "street": "On or near Parking Area",
    "lat": 51.399144,
    "lng": -2.639186,
    "month": "2026-03"
  },
  {
    "category": "anti-social-behaviour",
    "street": "On or near Borleyton Walk",
    "lat": 51.406108,
    "lng": -2.624978,
    "month": "2026-03"
  },
  {
    "category": "anti-social-behaviour",
    "street": "On or near Paybridge Road",
    "lat": 51.40794,
    "lng": -2.623766,
    "month": "2026-03"
  },
  {
    "category": "anti-social-behaviour",
    "street": "On or near Paybridge Road",
    "lat": 51.40794,
    "lng": -2.623766,
    "month": "2026-03"
  },
  {
    "category": "anti-social-behaviour",
    "street": "On or near Bowring Close",
    "lat": 51.40172,
    "lng": -2.602765,
    "month": "2026-03"
  },
  {
    "category": "anti-social-behaviour",
    "street": "On or near Bowring Close",
    "lat": 51.40172,
    "lng": -2.602765,
    "month": "2026-03"
  },
  {
    "category": "anti-social-behaviour",
    "street": "On or near Bowring Close",
    "lat": 51.40172,
    "lng": -2.602765,
    "month": "2026-03"
  },
  {
    "category": "anti-social-behaviour",
    "street": "On or near Blagrove Close",
    "lat": 51.402047,
    "lng": -2.601979,
    "month": "2026-03"
  },
  {
    "category": "anti-social-behaviour",
    "street": "On or near Bishport Close",
    "lat": 51.405104,
    "lng": -2.609006,
    "month": "2026-03"
  },
  {
    "category": "anti-social-behaviour",
    "street": "On or near Bowring Close",
    "lat": 51.40172,
    "lng": -2.602765,
    "month": "2026-03"
  },
  {
    "category": "anti-social-behaviour",
    "street": "On or near Honey Garston Close",
    "lat": 51.405835,
    "lng": -2.606845,
    "month": "2026-03"
  },
  {
    "category": "anti-social-behaviour",
    "street": "On or near Broadoak Hill",
    "lat": 51.402756,
    "lng": -2.622963,
    "month": "2026-03"
  },
  {
    "category": "anti-social-behaviour",
    "street": "On or near Bishport Avenue",
    "lat": 51.405219,
    "lng": -2.605845,
    "month": "2026-03"
  },
  {
    "category": "anti-social-behaviour",
    "street": "On or near Chalcroft Walk",
    "lat": 51.40511,
    "lng": -2.63175,
    "month": "2026-03"
  },
  {
    "category": "anti-social-behaviour",
    "street": "On or near Bowring Close",
    "lat": 51.40172,
    "lng": -2.602765,
    "month": "2026-03"
  },
  {
    "category": "anti-social-behaviour",
    "street": "On or near Bowring Close",
    "lat": 51.40172,
    "lng": -2.602765,
    "month": "2026-03"
  },
  {
    "category": "anti-social-behaviour",
    "street": "On or near Bowring Close",
    "lat": 51.40172,
    "lng": -2.602765,
    "month": "2026-03"
  },
  {
    "category": "anti-social-behaviour",
    "street": "On or near Murford Walk",
    "lat": 51.407423,
    "lng": -2.609296,
    "month": "2026-03"
  },
  {
    "category": "anti-social-behaviour",
    "street": "On or near Bowring Close",
    "lat": 51.40172,
    "lng": -2.602765,
    "month": "2026-03"
  },
  {
    "category": "anti-social-behaviour",
    "street": "On or near Four Acres Close",
    "lat": 51.407015,
    "lng": -2.623552,
    "month": "2026-03"
  },
  {
    "category": "anti-social-behaviour",
    "street": "On or near Blagrove Close",
    "lat": 51.402047,
    "lng": -2.601979,
    "month": "2026-03"
  },
  {
    "category": "anti-social-behaviour",
    "street": "On or near Farmer Road",
    "lat": 51.405239,
    "lng": -2.627784,
    "month": "2026-03"
  },
  {
    "category": "anti-social-behaviour",
    "street": "On or near Paybridge Road",
    "lat": 51.40794,
    "lng": -2.623766,
    "month": "2026-03"
  },
  {
    "category": "anti-social-behaviour",
    "street": "On or near Billand Close",
    "lat": 51.403497,
    "lng": -2.629039,
    "month": "2026-03"
  },
  {
    "category": "anti-social-behaviour",
    "street": "On or near Pawlett Road",
    "lat": 51.403725,
    "lng": -2.602648,
    "month": "2026-03"
  },
  {
    "category": "anti-social-behaviour",
    "street": "On or near Bishport Close",
    "lat": 51.405104,
    "lng": -2.609006,
    "month": "2026-03"
  },
  {
    "category": "anti-social-behaviour",
    "street": "On or near Pawlett Walk",
    "lat": 51.403446,
    "lng": -2.602788,
    "month": "2026-03"
  },
  {
    "category": "anti-social-behaviour",
    "street": "On or near Spring Lane",
    "lat": 51.393412,
    "lng": -2.612933,
    "month": "2026-03"
  },
  {
    "category": "anti-social-behaviour",
    "street": "On or near Bourchier Gardens",
    "lat": 51.403692,
    "lng": -2.607349,
    "month": "2026-03"
  },
  {
    "category": "anti-social-behaviour",
    "street": "On or near Elvard Road",
    "lat": 51.409238,
    "lng": -2.616308,
    "month": "2026-03"
  },
  {
    "category": "anti-social-behaviour",
    "street": "On or near Paybridge Road",
    "lat": 51.40794,
    "lng": -2.623766,
    "month": "2026-03"
  },
  {
    "category": "anti-social-behaviour",
    "street": "On or near Paybridge Road",
    "lat": 51.40794,
    "lng": -2.623766,
    "month": "2026-03"
  },
  {
    "category": "burglary",
    "street": "On or near Borleyton Walk",
    "lat": 51.406108,
    "lng": -2.624978,
    "month": "2026-03"
  },
  {
    "category": "burglary",
    "street": "On or near Newland Road",
    "lat": 51.404794,
    "lng": -2.614997,
    "month": "2026-03"
  },
  {
    "category": "burglary",
    "street": "On or near Borleyton Walk",
    "lat": 51.406108,
    "lng": -2.624978,
    "month": "2026-03"
  },
  {
    "category": "criminal-damage-arson",
    "street": "On or near Molesworth Drive",
    "lat": 51.408135,
    "lng": -2.615818,
    "month": "2026-03"
  },
  {
    "category": "criminal-damage-arson",
    "street": "On or near Murford Walk",
    "lat": 51.407423,
    "lng": -2.609296,
    "month": "2026-03"
  },
  {
    "category": "criminal-damage-arson",
    "street": "On or near Pigott Avenue",
    "lat": 51.406651,
    "lng": -2.614174,
    "month": "2026-03"
  },
  {
    "category": "criminal-damage-arson",
    "street": "On or near Hellier Walk",
    "lat": 51.403765,
    "lng": -2.602002,
    "month": "2026-03"
  },
  {
    "category": "criminal-damage-arson",
    "street": "On or near Herridge Close",
    "lat": 51.406261,
    "lng": -2.607943,
    "month": "2026-03"
  },
  {
    "category": "criminal-damage-arson",
    "street": "On or near Newland Road",
    "lat": 51.404794,
    "lng": -2.614997,
    "month": "2026-03"
  },
  {
    "category": "criminal-damage-arson",
    "street": "On or near Broad Oak Road",
    "lat": 51.407057,
    "lng": -2.62062,
    "month": "2026-03"
  },
  {
    "category": "drugs",
    "street": "On or near Molesworth Drive",
    "lat": 51.408135,
    "lng": -2.615818,
    "month": "2026-03"
  },
  {
    "category": "drugs",
    "street": "On or near Grange Lane",
    "lat": 51.405731,
    "lng": -2.623176,
    "month": "2026-03"
  },
  {
    "category": "other-theft",
    "street": "On or near Molesworth Drive",
    "lat": 51.408135,
    "lng": -2.615818,
    "month": "2026-03"
  },
  {
    "category": "other-theft",
    "street": "On or near Farmer Road",
    "lat": 51.405239,
    "lng": -2.627784,
    "month": "2026-03"
  },
  {
    "category": "public-order",
    "street": "On or near Cobhorn Drive",
    "lat": 51.405638,
    "lng": -2.620328,
    "month": "2026-03"
  },
  {
    "category": "public-order",
    "street": "On or near Pigott Avenue",
    "lat": 51.406651,
    "lng": -2.614174,
    "month": "2026-03"
  },
  {
    "category": "public-order",
    "street": "On or near Culverwell Road",
    "lat": 51.406099,
    "lng": -2.614856,
    "month": "2026-03"
  },
  {
    "category": "public-order",
    "street": "On or near Broadoak Hill",
    "lat": 51.402756,
    "lng": -2.622963,
    "month": "2026-03"
  },
  {
    "category": "public-order",
    "street": "On or near Mellent Avenue",
    "lat": 51.401097,
    "lng": -2.599595,
    "month": "2026-03"
  },
  {
    "category": "public-order",
    "street": "On or near Cobhorn Drive",
    "lat": 51.405638,
    "lng": -2.620328,
    "month": "2026-03"
  },
  {
    "category": "public-order",
    "street": "On or near Pawlett Walk",
    "lat": 51.403446,
    "lng": -2.602788,
    "month": "2026-03"
  },
  {
    "category": "public-order",
    "street": "On or near Paybridge Road",
    "lat": 51.40794,
    "lng": -2.623766,
    "month": "2026-03"
  },
  {
    "category": "public-order",
    "street": "On or near Vowell Close",
    "lat": 51.40715,
    "lng": -2.611564,
    "month": "2026-03"
  },
  {
    "category": "public-order",
    "street": "On or near Four Acres Close",
    "lat": 51.407015,
    "lng": -2.623552,
    "month": "2026-03"
  },
  {
    "category": "robbery",
    "street": "On or near Culverwell Road",
    "lat": 51.406099,
    "lng": -2.614856,
    "month": "2026-03"
  },
  {
    "category": "vehicle-crime",
    "street": "On or near Borleyton Walk",
    "lat": 51.406108,
    "lng": -2.624978,
    "month": "2026-03"
  },
  {
    "category": "vehicle-crime",
    "street": "On or near Broad Oak Road",
    "lat": 51.407057,
    "lng": -2.62062,
    "month": "2026-03"
  },
  {
    "category": "vehicle-crime",
    "street": "On or near Elvard Close",
    "lat": 51.409081,
    "lng": -2.617168,
    "month": "2026-03"
  },
  {
    "category": "vehicle-crime",
    "street": "On or near Four Acres Close",
    "lat": 51.407015,
    "lng": -2.623552,
    "month": "2026-03"
  },
  {
    "category": "vehicle-crime",
    "street": "On or near Cobhorn Drive",
    "lat": 51.405638,
    "lng": -2.620328,
    "month": "2026-03"
  },
  {
    "category": "vehicle-crime",
    "street": "On or near Kencot Walk",
    "lat": 51.404741,
    "lng": -2.609663,
    "month": "2026-03"
  },
  {
    "category": "vehicle-crime",
    "street": "On or near Harris Grove",
    "lat": 51.404349,
    "lng": -2.60546,
    "month": "2026-03"
  },
  {
    "category": "vehicle-crime",
    "street": "On or near Wells Road",
    "lat": 51.394239,
    "lng": -2.626598,
    "month": "2026-03"
  },
  {
    "category": "violent-crime",
    "street": "On or near Honey Garston Road",
    "lat": 51.406706,
    "lng": -2.607015,
    "month": "2026-03"
  },
  {
    "category": "violent-crime",
    "street": "On or near Pesley Close",
    "lat": 51.405546,
    "lng": -2.619047,
    "month": "2026-03"
  },
  {
    "category": "violent-crime",
    "street": "On or near Paybridge Road",
    "lat": 51.40794,
    "lng": -2.623766,
    "month": "2026-03"
  },
  {
    "category": "violent-crime",
    "street": "On or near Broad Oak Road",
    "lat": 51.407057,
    "lng": -2.62062,
    "month": "2026-03"
  },
  {
    "category": "violent-crime",
    "street": "On or near Broad Oak Road",
    "lat": 51.407057,
    "lng": -2.62062,
    "month": "2026-03"
  },
  {
    "category": "violent-crime",
    "street": "On or near Huntingham Road",
    "lat": 51.408437,
    "lng": -2.626663,
    "month": "2026-03"
  },
  {
    "category": "violent-crime",
    "street": "On or near Parking Area",
    "lat": 51.408716,
    "lng": -2.621491,
    "month": "2026-03"
  },
  {
    "category": "violent-crime",
    "street": "On or near Pawlett Road",
    "lat": 51.403725,
    "lng": -2.602648,
    "month": "2026-03"
  },
  {
    "category": "violent-crime",
    "street": "On or near Billand Close",
    "lat": 51.403497,
    "lng": -2.629039,
    "month": "2026-03"
  },
  {
    "category": "violent-crime",
    "street": "On or near Billand Close",
    "lat": 51.403497,
    "lng": -2.629039,
    "month": "2026-03"
  },
  {
    "category": "violent-crime",
    "street": "On or near Billand Close",
    "lat": 51.403497,
    "lng": -2.629039,
    "month": "2026-03"
  },
  {
    "category": "violent-crime",
    "street": "On or near Queen's Road",
    "lat": 51.408529,
    "lng": -2.621201,
    "month": "2026-03"
  },
  {
    "category": "violent-crime",
    "street": "On or near Mellent Avenue",
    "lat": 51.401097,
    "lng": -2.599595,
    "month": "2026-03"
  },
  {
    "category": "violent-crime",
    "street": "On or near Culverwell Road",
    "lat": 51.406099,
    "lng": -2.614856,
    "month": "2026-03"
  },
  {
    "category": "violent-crime",
    "street": "On or near Herridge Road",
    "lat": 51.406692,
    "lng": -2.607963,
    "month": "2026-03"
  },
  {
    "category": "violent-crime",
    "street": "On or near Pigott Avenue",
    "lat": 51.406651,
    "lng": -2.614174,
    "month": "2026-03"
  },
  {
    "category": "violent-crime",
    "street": "On or near Bourchier Gardens",
    "lat": 51.403692,
    "lng": -2.607349,
    "month": "2026-03"
  },
  {
    "category": "violent-crime",
    "street": "On or near Grange Lane",
    "lat": 51.405731,
    "lng": -2.623176,
    "month": "2026-03"
  },
  {
    "category": "violent-crime",
    "street": "On or near Molesworth Drive",
    "lat": 51.408135,
    "lng": -2.615818,
    "month": "2026-03"
  },
  {
    "category": "violent-crime",
    "street": "On or near Molesworth Drive",
    "lat": 51.408135,
    "lng": -2.615818,
    "month": "2026-03"
  },
  {
    "category": "violent-crime",
    "street": "On or near Billand Close",
    "lat": 51.403497,
    "lng": -2.629039,
    "month": "2026-03"
  },
  {
    "category": "violent-crime",
    "street": "On or near Farmer Road",
    "lat": 51.405239,
    "lng": -2.627784,
    "month": "2026-03"
  },
  {
    "category": "violent-crime",
    "street": "On or near Blagrove Close",
    "lat": 51.402047,
    "lng": -2.601979,
    "month": "2026-03"
  },
  {
    "category": "violent-crime",
    "street": "On or near Grange Lane",
    "lat": 51.405731,
    "lng": -2.623176,
    "month": "2026-03"
  },
  {
    "category": "violent-crime",
    "street": "On or near Parking Area",
    "lat": 51.408716,
    "lng": -2.621491,
    "month": "2026-03"
  },
  {
    "category": "violent-crime",
    "street": "On or near Vowell Close",
    "lat": 51.40715,
    "lng": -2.611564,
    "month": "2026-03"
  },
  {
    "category": "violent-crime",
    "street": "On or near Molesworth Drive",
    "lat": 51.408135,
    "lng": -2.615818,
    "month": "2026-03"
  },
  {
    "category": "violent-crime",
    "street": "On or near Bishport Close",
    "lat": 51.405104,
    "lng": -2.609006,
    "month": "2026-03"
  },
  {
    "category": "violent-crime",
    "street": "On or near Farmer Road",
    "lat": 51.405239,
    "lng": -2.627784,
    "month": "2026-03"
  },
  {
    "category": "violent-crime",
    "street": "On or near Arthurswood Road",
    "lat": 51.4068,
    "lng": -2.614923,
    "month": "2026-03"
  },
  {
    "category": "violent-crime",
    "street": "On or near Sheepscroft",
    "lat": 51.409391,
    "lng": -2.618049,
    "month": "2026-03"
  },
  {
    "category": "violent-crime",
    "street": "On or near Culverwell Road",
    "lat": 51.406099,
    "lng": -2.614856,
    "month": "2026-03"
  },
  {
    "category": "violent-crime",
    "street": "On or near Sheepscroft",
    "lat": 51.409391,
    "lng": -2.618049,
    "month": "2026-03"
  },
  {
    "category": "violent-crime",
    "street": "On or near Pigott Avenue",
    "lat": 51.406651,
    "lng": -2.614174,
    "month": "2026-03"
  },
  {
    "category": "violent-crime",
    "street": "On or near Queen's Road",
    "lat": 51.408529,
    "lng": -2.621201,
    "month": "2026-03"
  },
  {
    "category": "violent-crime",
    "street": "On or near Sheepscroft",
    "lat": 51.409391,
    "lng": -2.618049,
    "month": "2026-03"
  },
  {
    "category": "violent-crime",
    "street": "On or near Elvard Road",
    "lat": 51.409238,
    "lng": -2.616308,
    "month": "2026-03"
  },
  {
    "category": "violent-crime",
    "street": "On or near Jack Price Close",
    "lat": 51.404219,
    "lng": -2.604638,
    "month": "2026-03"
  },
  {
    "category": "violent-crime",
    "street": "On or near Farmer Road",
    "lat": 51.405239,
    "lng": -2.627784,
    "month": "2026-03"
  },
  {
    "category": "violent-crime",
    "street": "On or near Elvard Road",
    "lat": 51.409238,
    "lng": -2.616308,
    "month": "2026-03"
  },
  {
    "category": "violent-crime",
    "street": "On or near Highmead Gardens",
    "lat": 51.407478,
    "lng": -2.631121,
    "month": "2026-03"
  },
  {
    "category": "violent-crime",
    "street": "On or near Queen's Road",
    "lat": 51.408529,
    "lng": -2.621201,
    "month": "2026-03"
  },
  {
    "category": "violent-crime",
    "street": "On or near Highmead Gardens",
    "lat": 51.407478,
    "lng": -2.631121,
    "month": "2026-03"
  },
  {
    "category": "violent-crime",
    "street": "On or near Arthurswood Road",
    "lat": 51.4068,
    "lng": -2.614923,
    "month": "2026-03"
  },
  {
    "category": "violent-crime",
    "street": "On or near Borleyton Walk",
    "lat": 51.406108,
    "lng": -2.624978,
    "month": "2026-03"
  },
  {
    "category": "violent-crime",
    "street": "On or near Molesworth Drive",
    "lat": 51.408135,
    "lng": -2.615818,
    "month": "2026-03"
  },
  {
    "category": "violent-crime",
    "street": "On or near Elvard Road",
    "lat": 51.409238,
    "lng": -2.616308,
    "month": "2026-03"
  },
  {
    "category": "violent-crime",
    "street": "On or near Highmead Gardens",
    "lat": 51.407478,
    "lng": -2.631121,
    "month": "2026-03"
  },
  {
    "category": "violent-crime",
    "street": "On or near Highmead Gardens",
    "lat": 51.407478,
    "lng": -2.631121,
    "month": "2026-03"
  },
  {
    "category": "violent-crime",
    "street": "On or near Pigott Avenue",
    "lat": 51.406651,
    "lng": -2.614174,
    "month": "2026-03"
  },
  {
    "category": "violent-crime",
    "street": "On or near Borleyton Walk",
    "lat": 51.406108,
    "lng": -2.624978,
    "month": "2026-03"
  },
  {
    "category": "violent-crime",
    "street": "On or near Borleyton Walk",
    "lat": 51.406108,
    "lng": -2.624978,
    "month": "2026-03"
  },
  {
    "category": "violent-crime",
    "street": "On or near Turtlegate Walk",
    "lat": 51.406977,
    "lng": -2.630654,
    "month": "2026-03"
  },
  {
    "category": "violent-crime",
    "street": "On or near Bishport Close",
    "lat": 51.405104,
    "lng": -2.609006,
    "month": "2026-03"
  },
  {
    "category": "violent-crime",
    "street": "On or near Withywood Gardens",
    "lat": 51.409014,
    "lng": -2.619626,
    "month": "2026-03"
  },
  {
    "category": "violent-crime",
    "street": "On or near Four Acres Close",
    "lat": 51.407015,
    "lng": -2.623552,
    "month": "2026-03"
  },
  {
    "category": "violent-crime",
    "street": "On or near Bishport Close",
    "lat": 51.405104,
    "lng": -2.609006,
    "month": "2026-03"
  },
  {
    "category": "violent-crime",
    "street": "On or near Newland Road",
    "lat": 51.404794,
    "lng": -2.614997,
    "month": "2026-03"
  },
  {
    "category": "other-crime",
    "street": "On or near Fair Furlong",
    "lat": 51.407117,
    "lng": -2.612613,
    "month": "2026-03"
  },
  {
    "category": "other-crime",
    "street": "On or near Huntingham Road",
    "lat": 51.408437,
    "lng": -2.626663,
    "month": "2026-03"
  },
  {
    "category": "other-crime",
    "street": "On or near Herridge Road",
    "lat": 51.406692,
    "lng": -2.607963,
    "month": "2026-03"
  },
  {
    "category": "anti-social-behaviour",
    "street": "On or near Upjohn Crescent",
    "lat": 51.402693,
    "lng": -2.597071,
    "month": "2026-03"
  },
  {
    "category": "anti-social-behaviour",
    "street": "On or near Silcox Road",
    "lat": 51.406356,
    "lng": -2.599807,
    "month": "2026-03"
  },
  {
    "category": "anti-social-behaviour",
    "street": "On or near The Groves",
    "lat": 51.405297,
    "lng": -2.592504,
    "month": "2026-03"
  },
  {
    "category": "anti-social-behaviour",
    "street": "On or near Upjohn Crescent",
    "lat": 51.402693,
    "lng": -2.597071,
    "month": "2026-03"
  },
  {
    "category": "anti-social-behaviour",
    "street": "On or near Silcox Road",
    "lat": 51.406356,
    "lng": -2.599807,
    "month": "2026-03"
  },
  {
    "category": "anti-social-behaviour",
    "street": "On or near William Jessop Way",
    "lat": 51.408251,
    "lng": -2.589638,
    "month": "2026-03"
  },
  {
    "category": "anti-social-behaviour",
    "street": "On or near Great Wood Close",
    "lat": 51.405576,
    "lng": -2.601292,
    "month": "2026-03"
  },
  {
    "category": "anti-social-behaviour",
    "street": "On or near Upjohn Crescent",
    "lat": 51.402693,
    "lng": -2.597071,
    "month": "2026-03"
  },
  {
    "category": "anti-social-behaviour",
    "street": "On or near William Jessop Way",
    "lat": 51.408251,
    "lng": -2.589638,
    "month": "2026-03"
  },
  {
    "category": "anti-social-behaviour",
    "street": "On or near Peterson Square",
    "lat": 51.404206,
    "lng": -2.600124,
    "month": "2026-03"
  },
  {
    "category": "anti-social-behaviour",
    "street": "On or near Cromford Close",
    "lat": 51.407281,
    "lng": -2.591193,
    "month": "2026-03"
  },
  {
    "category": "anti-social-behaviour",
    "street": "On or near Cromford Close",
    "lat": 51.407281,
    "lng": -2.591193,
    "month": "2026-03"
  },
  {
    "category": "anti-social-behaviour",
    "street": "On or near The Groves",
    "lat": 51.405297,
    "lng": -2.592504,
    "month": "2026-03"
  },
  {
    "category": "anti-social-behaviour",
    "street": "On or near Cromford Close",
    "lat": 51.407281,
    "lng": -2.591193,
    "month": "2026-03"
  },
  {
    "category": "anti-social-behaviour",
    "street": "On or near William Jessop Way",
    "lat": 51.408251,
    "lng": -2.589638,
    "month": "2026-03"
  },
  {
    "category": "anti-social-behaviour",
    "street": "On or near Walwyn Gardens",
    "lat": 51.404235,
    "lng": -2.598026,
    "month": "2026-03"
  },
  {
    "category": "anti-social-behaviour",
    "street": "On or near Branche Grove",
    "lat": 51.404547,
    "lng": -2.594939,
    "month": "2026-03"
  },
  {
    "category": "anti-social-behaviour",
    "street": "On or near Dyers Close",
    "lat": 51.407706,
    "lng": -2.596173,
    "month": "2026-03"
  },
  {
    "category": "anti-social-behaviour",
    "street": "On or near Chatterton Green",
    "lat": 51.405075,
    "lng": -2.582826,
    "month": "2026-03"
  },
  {
    "category": "anti-social-behaviour",
    "street": "On or near Maidenhead Road",
    "lat": 51.40352,
    "lng": -2.591734,
    "month": "2026-03"
  },
  {
    "category": "anti-social-behaviour",
    "street": "On or near Petrol Station",
    "lat": 51.406587,
    "lng": -2.598689,
    "month": "2026-03"
  },
  {
    "category": "anti-social-behaviour",
    "street": "On or near Peterson Square",
    "lat": 51.404206,
    "lng": -2.600124,
    "month": "2026-03"
  },
  {
    "category": "anti-social-behaviour",
    "street": "On or near Aldwick Avenue",
    "lat": 51.40241,
    "lng": -2.599655,
    "month": "2026-03"
  },
  {
    "category": "anti-social-behaviour",
    "street": "On or near Peterson Square",
    "lat": 51.404206,
    "lng": -2.600124,
    "month": "2026-03"
  },
  {
    "category": "anti-social-behaviour",
    "street": "On or near Parkwood Close",
    "lat": 51.405868,
    "lng": -2.577143,
    "month": "2026-03"
  },
  {
    "category": "anti-social-behaviour",
    "street": "On or near Upjohn Crescent",
    "lat": 51.402693,
    "lng": -2.597071,
    "month": "2026-03"
  },
  {
    "category": "anti-social-behaviour",
    "street": "On or near Teyfant Road",
    "lat": 51.405546,
    "lng": -2.58933,
    "month": "2026-03"
  },
  {
    "category": "anti-social-behaviour",
    "street": "On or near Teyfant Road",
    "lat": 51.405546,
    "lng": -2.58933,
    "month": "2026-03"
  },
  {
    "category": "anti-social-behaviour",
    "street": "On or near Great Wood Close",
    "lat": 51.405576,
    "lng": -2.601292,
    "month": "2026-03"
  },
  {
    "category": "anti-social-behaviour",
    "street": "On or near Walwyn Gardens",
    "lat": 51.404235,
    "lng": -2.598026,
    "month": "2026-03"
  },
  {
    "category": "anti-social-behaviour",
    "street": "On or near Totshill Drive",
    "lat": 51.405691,
    "lng": -2.587334,
    "month": "2026-03"
  },
  {
    "category": "anti-social-behaviour",
    "street": "On or near Upjohn Crescent",
    "lat": 51.402693,
    "lng": -2.597071,
    "month": "2026-03"
  },
  {
    "category": "anti-social-behaviour",
    "street": "On or near The Brambles",
    "lat": 51.407491,
    "lng": -2.599477,
    "month": "2026-03"
  },
  {
    "category": "anti-social-behaviour",
    "street": "On or near Peterson Square",
    "lat": 51.404206,
    "lng": -2.600124,
    "month": "2026-03"
  },
  {
    "category": "anti-social-behaviour",
    "street": "On or near The Groves",
    "lat": 51.405297,
    "lng": -2.592504,
    "month": "2026-03"
  },
  {
    "category": "anti-social-behaviour",
    "street": "On or near Peterson Square",
    "lat": 51.404206,
    "lng": -2.600124,
    "month": "2026-03"
  },
  {
    "category": "anti-social-behaviour",
    "street": "On or near Teyfant Road",
    "lat": 51.405546,
    "lng": -2.58933,
    "month": "2026-03"
  },
  {
    "category": "anti-social-behaviour",
    "street": "On or near Aldwick Avenue",
    "lat": 51.40241,
    "lng": -2.599655,
    "month": "2026-03"
  },
  {
    "category": "anti-social-behaviour",
    "street": "On or near Cromford Close",
    "lat": 51.407281,
    "lng": -2.591193,
    "month": "2026-03"
  },
  {
    "category": "anti-social-behaviour",
    "street": "On or near Silcox Road",
    "lat": 51.406356,
    "lng": -2.599807,
    "month": "2026-03"
  },
  {
    "category": "burglary",
    "street": "On or near William Jessop Way",
    "lat": 51.408251,
    "lng": -2.589638,
    "month": "2026-03"
  },
  {
    "category": "burglary",
    "street": "On or near Cromford Close",
    "lat": 51.407281,
    "lng": -2.591193,
    "month": "2026-03"
  },
  {
    "category": "burglary",
    "street": "On or near Belland Drive",
    "lat": 51.407081,
    "lng": -2.577259,
    "month": "2026-03"
  },
  {
    "category": "criminal-damage-arson",
    "street": "On or near Tynte Avenue",
    "lat": 51.403183,
    "lng": -2.590795,
    "month": "2026-03"
  },
  {
    "category": "criminal-damage-arson",
    "street": "On or near Upjohn Crescent",
    "lat": 51.402693,
    "lng": -2.597071,
    "month": "2026-03"
  },
  {
    "category": "criminal-damage-arson",
    "street": "On or near Cromford Close",
    "lat": 51.407281,
    "lng": -2.591193,
    "month": "2026-03"
  },
  {
    "category": "criminal-damage-arson",
    "street": "On or near Englishcombe Road",
    "lat": 51.401463,
    "lng": -2.598493,
    "month": "2026-03"
  },
  {
    "category": "criminal-damage-arson",
    "street": "On or near Petrol Station",
    "lat": 51.406587,
    "lng": -2.598689,
    "month": "2026-03"
  },
  {
    "category": "criminal-damage-arson",
    "street": "On or near William Jessop Way",
    "lat": 51.408251,
    "lng": -2.589638,
    "month": "2026-03"
  },
  {
    "category": "criminal-damage-arson",
    "street": "On or near Cromford Close",
    "lat": 51.407281,
    "lng": -2.591193,
    "month": "2026-03"
  },
  {
    "category": "criminal-damage-arson",
    "street": "On or near Sampsons Road",
    "lat": 51.405752,
    "lng": -2.596751,
    "month": "2026-03"
  },
  {
    "category": "criminal-damage-arson",
    "street": "On or near William Jessop Way",
    "lat": 51.408251,
    "lng": -2.589638,
    "month": "2026-03"
  },
  {
    "category": "criminal-damage-arson",
    "street": "On or near Belland Drive",
    "lat": 51.407081,
    "lng": -2.577259,
    "month": "2026-03"
  },
  {
    "category": "criminal-damage-arson",
    "street": "On or near The Primroses",
    "lat": 51.407254,
    "lng": -2.600207,
    "month": "2026-03"
  },
  {
    "category": "criminal-damage-arson",
    "street": "On or near Aldwick Avenue",
    "lat": 51.40241,
    "lng": -2.599655,
    "month": "2026-03"
  },
  {
    "category": "criminal-damage-arson",
    "street": "On or near Longway Avenue",
    "lat": 51.406176,
    "lng": -2.582093,
    "month": "2026-03"
  },
  {
    "category": "drugs",
    "street": "On or near The Brambles",
    "lat": 51.407491,
    "lng": -2.599477,
    "month": "2026-03"
  },
  {
    "category": "drugs",
    "street": "On or near Cromford Close",
    "lat": 51.407281,
    "lng": -2.591193,
    "month": "2026-03"
  },
  {
    "category": "other-theft",
    "street": "On or near Dyers Close",
    "lat": 51.407706,
    "lng": -2.596173,
    "month": "2026-03"
  },
  {
    "category": "other-theft",
    "street": "On or near William Jessop Way",
    "lat": 51.408251,
    "lng": -2.589638,
    "month": "2026-03"
  },
  {
    "category": "other-theft",
    "street": "On or near Oxleaze",
    "lat": 51.40579,
    "lng": -2.594495,
    "month": "2026-03"
  },
  {
    "category": "other-theft",
    "street": "On or near Oxleaze",
    "lat": 51.40579,
    "lng": -2.594495,
    "month": "2026-03"
  },
  {
    "category": "other-theft",
    "street": "On or near Chelvey Close",
    "lat": 51.40304,
    "lng": -2.595954,
    "month": "2026-03"
  },
  {
    "category": "other-theft",
    "street": "On or near The Groves",
    "lat": 51.405297,
    "lng": -2.592504,
    "month": "2026-03"
  },
  {
    "category": "possession-of-weapons",
    "street": "On or near Walwyn Gardens",
    "lat": 51.404235,
    "lng": -2.598026,
    "month": "2026-03"
  },
  {
    "category": "public-order",
    "street": "On or near Sharland Grove",
    "lat": 51.405207,
    "lng": -2.602955,
    "month": "2026-03"
  },
  {
    "category": "public-order",
    "street": "On or near Petrol Station",
    "lat": 51.406587,
    "lng": -2.598689,
    "month": "2026-03"
  },
  {
    "category": "public-order",
    "street": "On or near Cromford Close",
    "lat": 51.407281,
    "lng": -2.591193,
    "month": "2026-03"
  },
  {
    "category": "public-order",
    "street": "On or near The Primroses",
    "lat": 51.407254,
    "lng": -2.600207,
    "month": "2026-03"
  },
  {
    "category": "public-order",
    "street": "On or near The Primroses",
    "lat": 51.407254,
    "lng": -2.600207,
    "month": "2026-03"
  },
  {
    "category": "public-order",
    "street": "On or near Petrol Station",
    "lat": 51.406587,
    "lng": -2.598689,
    "month": "2026-03"
  },
  {
    "category": "public-order",
    "street": "On or near Tewther Road",
    "lat": 51.402123,
    "lng": -2.597711,
    "month": "2026-03"
  },
  {
    "category": "public-order",
    "street": "On or near Belland Drive",
    "lat": 51.407081,
    "lng": -2.577259,
    "month": "2026-03"
  },
  {
    "category": "public-order",
    "street": "On or near Petrol Station",
    "lat": 51.406587,
    "lng": -2.598689,
    "month": "2026-03"
  },
  {
    "category": "public-order",
    "street": "On or near The Primroses",
    "lat": 51.407254,
    "lng": -2.600207,
    "month": "2026-03"
  },
  {
    "category": "public-order",
    "street": "On or near Petrol Station",
    "lat": 51.406587,
    "lng": -2.598689,
    "month": "2026-03"
  },
  {
    "category": "robbery",
    "street": "On or near Cromford Close",
    "lat": 51.407281,
    "lng": -2.591193,
    "month": "2026-03"
  },
  {
    "category": "shoplifting",
    "street": "On or near Peterson Square",
    "lat": 51.404206,
    "lng": -2.600124,
    "month": "2026-03"
  },
  {
    "category": "shoplifting",
    "street": "On or near Peterson Square",
    "lat": 51.404206,
    "lng": -2.600124,
    "month": "2026-03"
  },
  {
    "category": "shoplifting",
    "street": "On or near Peterson Square",
    "lat": 51.404206,
    "lng": -2.600124,
    "month": "2026-03"
  },
  {
    "category": "shoplifting",
    "street": "On or near Belland Drive",
    "lat": 51.407081,
    "lng": -2.577259,
    "month": "2026-03"
  },
  {
    "category": "shoplifting",
    "street": "On or near Peterson Square",
    "lat": 51.404206,
    "lng": -2.600124,
    "month": "2026-03"
  },
  {
    "category": "shoplifting",
    "street": "On or near Peterson Square",
    "lat": 51.404206,
    "lng": -2.600124,
    "month": "2026-03"
  },
  {
    "category": "shoplifting",
    "street": "On or near Peterson Square",
    "lat": 51.404206,
    "lng": -2.600124,
    "month": "2026-03"
  },
  {
    "category": "shoplifting",
    "street": "On or near Peterson Square",
    "lat": 51.404206,
    "lng": -2.600124,
    "month": "2026-03"
  },
  {
    "category": "shoplifting",
    "street": "On or near Peterson Square",
    "lat": 51.404206,
    "lng": -2.600124,
    "month": "2026-03"
  },
  {
    "category": "shoplifting",
    "street": "On or near Petrol Station",
    "lat": 51.406587,
    "lng": -2.598689,
    "month": "2026-03"
  },
  {
    "category": "shoplifting",
    "street": "On or near Petrol Station",
    "lat": 51.406587,
    "lng": -2.598689,
    "month": "2026-03"
  },
  {
    "category": "shoplifting",
    "street": "On or near Peterson Square",
    "lat": 51.404206,
    "lng": -2.600124,
    "month": "2026-03"
  },
  {
    "category": "shoplifting",
    "street": "On or near Peterson Square",
    "lat": 51.404206,
    "lng": -2.600124,
    "month": "2026-03"
  },
  {
    "category": "shoplifting",
    "street": "On or near Peterson Square",
    "lat": 51.404206,
    "lng": -2.600124,
    "month": "2026-03"
  },
  {
    "category": "shoplifting",
    "street": "On or near Peterson Square",
    "lat": 51.404206,
    "lng": -2.600124,
    "month": "2026-03"
  },
  {
    "category": "shoplifting",
    "street": "On or near Holbrook Crescent",
    "lat": 51.40514,
    "lng": -2.596873,
    "month": "2026-03"
  },
  {
    "category": "vehicle-crime",
    "street": "On or near Cromford Close",
    "lat": 51.407281,
    "lng": -2.591193,
    "month": "2026-03"
  },
  {
    "category": "vehicle-crime",
    "street": "On or near Woodmarsh Close",
    "lat": 51.406833,
    "lng": -2.574654,
    "month": "2026-03"
  },
  {
    "category": "vehicle-crime",
    "street": "On or near East Dundry Road",
    "lat": 51.40365,
    "lng": -2.572788,
    "month": "2026-03"
  },
  {
    "category": "vehicle-crime",
    "street": "On or near Stockton Close",
    "lat": 51.405398,
    "lng": -2.579337,
    "month": "2026-03"
  },
  {
    "category": "violent-crime",
    "street": "On or near The Groves",
    "lat": 51.405297,
    "lng": -2.592504,
    "month": "2026-03"
  },
  {
    "category": "violent-crime",
    "street": "On or near Englishcombe Road",
    "lat": 51.401463,
    "lng": -2.598493,
    "month": "2026-03"
  },
  {
    "category": "violent-crime",
    "street": "On or near Tynte Avenue",
    "lat": 51.403183,
    "lng": -2.590795,
    "month": "2026-03"
  },
  {
    "category": "violent-crime",
    "street": "On or near The Groves",
    "lat": 51.405297,
    "lng": -2.592504,
    "month": "2026-03"
  },
  {
    "category": "violent-crime",
    "street": "On or near The Groves",
    "lat": 51.405297,
    "lng": -2.592504,
    "month": "2026-03"
  },
  {
    "category": "violent-crime",
    "street": "On or near Petrol Station",
    "lat": 51.406587,
    "lng": -2.598689,
    "month": "2026-03"
  },
  {
    "category": "violent-crime",
    "street": "On or near The Groves",
    "lat": 51.405297,
    "lng": -2.592504,
    "month": "2026-03"
  },
  {
    "category": "violent-crime",
    "street": "On or near Greenacre Road",
    "lat": 51.401266,
    "lng": -2.574929,
    "month": "2026-03"
  },
  {
    "category": "violent-crime",
    "street": "On or near William Jessop Way",
    "lat": 51.408251,
    "lng": -2.589638,
    "month": "2026-03"
  },
  {
    "category": "violent-crime",
    "street": "On or near Walwyn Gardens",
    "lat": 51.404235,
    "lng": -2.598026,
    "month": "2026-03"
  },
  {
    "category": "violent-crime",
    "street": "On or near Belland Drive",
    "lat": 51.407081,
    "lng": -2.577259,
    "month": "2026-03"
  },
  {
    "category": "violent-crime",
    "street": "On or near The Groves",
    "lat": 51.405297,
    "lng": -2.592504,
    "month": "2026-03"
  },
  {
    "category": "violent-crime",
    "street": "On or near Rudgewood Close",
    "lat": 51.407565,
    "lng": -2.59725,
    "month": "2026-03"
  },
  {
    "category": "violent-crime",
    "street": "On or near Dowling Road",
    "lat": 51.404473,
    "lng": -2.597152,
    "month": "2026-03"
  },
  {
    "category": "violent-crime",
    "street": "On or near Teyfant Road",
    "lat": 51.405546,
    "lng": -2.58933,
    "month": "2026-03"
  },
  {
    "category": "violent-crime",
    "street": "On or near Teyfant Road",
    "lat": 51.405546,
    "lng": -2.58933,
    "month": "2026-03"
  },
  {
    "category": "violent-crime",
    "street": "On or near Sharland Grove",
    "lat": 51.405207,
    "lng": -2.602955,
    "month": "2026-03"
  },
  {
    "category": "violent-crime",
    "street": "On or near Maidenhead Road",
    "lat": 51.40352,
    "lng": -2.591734,
    "month": "2026-03"
  },
  {
    "category": "violent-crime",
    "street": "On or near The Brambles",
    "lat": 51.407491,
    "lng": -2.599477,
    "month": "2026-03"
  },
  {
    "category": "violent-crime",
    "street": "On or near Cromford Close",
    "lat": 51.407281,
    "lng": -2.591193,
    "month": "2026-03"
  },
  {
    "category": "violent-crime",
    "street": "On or near Woodmarsh Close",
    "lat": 51.406833,
    "lng": -2.574654,
    "month": "2026-03"
  },
  {
    "category": "violent-crime",
    "street": "On or near Teyfant Road",
    "lat": 51.405546,
    "lng": -2.58933,
    "month": "2026-03"
  },
  {
    "category": "violent-crime",
    "street": "On or near Hollister's Drive",
    "lat": 51.40501,
    "lng": -2.595836,
    "month": "2026-03"
  },
  {
    "category": "violent-crime",
    "street": "On or near Tewther Road",
    "lat": 51.402123,
    "lng": -2.597711,
    "month": "2026-03"
  },
  {
    "category": "violent-crime",
    "street": "On or near Tewther Road",
    "lat": 51.402123,
    "lng": -2.597711,
    "month": "2026-03"
  },
  {
    "category": "violent-crime",
    "street": "On or near Knightsbridge Park",
    "lat": 51.406336,
    "lng": -2.584266,
    "month": "2026-03"
  },
  {
    "category": "violent-crime",
    "street": "On or near Great Wood Close",
    "lat": 51.405576,
    "lng": -2.601292,
    "month": "2026-03"
  },
  {
    "category": "violent-crime",
    "street": "On or near Rudgewood Close",
    "lat": 51.407565,
    "lng": -2.59725,
    "month": "2026-03"
  },
  {
    "category": "violent-crime",
    "street": "On or near Oxleaze",
    "lat": 51.40579,
    "lng": -2.594495,
    "month": "2026-03"
  },
  {
    "category": "violent-crime",
    "street": "On or near Oxleaze",
    "lat": 51.40579,
    "lng": -2.594495,
    "month": "2026-03"
  },
  {
    "category": "violent-crime",
    "street": "On or near Cromford Close",
    "lat": 51.407281,
    "lng": -2.591193,
    "month": "2026-03"
  },
  {
    "category": "violent-crime",
    "street": "On or near Walwyn Gardens",
    "lat": 51.404235,
    "lng": -2.598026,
    "month": "2026-03"
  },
  {
    "category": "violent-crime",
    "street": "On or near Tewther Road",
    "lat": 51.402123,
    "lng": -2.597711,
    "month": "2026-03"
  },
  {
    "category": "violent-crime",
    "street": "On or near Tewther Road",
    "lat": 51.402123,
    "lng": -2.597711,
    "month": "2026-03"
  },
  {
    "category": "violent-crime",
    "street": "On or near Yewcroft Close",
    "lat": 51.405897,
    "lng": -2.574829,
    "month": "2026-03"
  },
  {
    "category": "violent-crime",
    "street": "On or near Cromford Close",
    "lat": 51.407281,
    "lng": -2.591193,
    "month": "2026-03"
  },
  {
    "category": "violent-crime",
    "street": "On or near William Jessop Way",
    "lat": 51.408251,
    "lng": -2.589638,
    "month": "2026-03"
  },
  {
    "category": "violent-crime",
    "street": "On or near Knightsbridge Park",
    "lat": 51.406336,
    "lng": -2.584266,
    "month": "2026-03"
  },
  {
    "category": "violent-crime",
    "street": "On or near Rudgewood Close",
    "lat": 51.407565,
    "lng": -2.59725,
    "month": "2026-03"
  },
  {
    "category": "violent-crime",
    "street": "On or near Lampton Avenue",
    "lat": 51.404014,
    "lng": -2.590001,
    "month": "2026-03"
  },
  {
    "category": "violent-crime",
    "street": "On or near Tewther Road",
    "lat": 51.402123,
    "lng": -2.597711,
    "month": "2026-03"
  },
  {
    "category": "violent-crime",
    "street": "On or near Dyers Close",
    "lat": 51.407706,
    "lng": -2.596173,
    "month": "2026-03"
  },
  {
    "category": "violent-crime",
    "street": "On or near Chatterton Green",
    "lat": 51.405075,
    "lng": -2.582826,
    "month": "2026-03"
  },
  {
    "category": "violent-crime",
    "street": "On or near Tynte Avenue",
    "lat": 51.403183,
    "lng": -2.590795,
    "month": "2026-03"
  },
  {
    "category": "violent-crime",
    "street": "On or near William Jessop Way",
    "lat": 51.408251,
    "lng": -2.589638,
    "month": "2026-03"
  },
  {
    "category": "violent-crime",
    "street": "On or near Peterson Square",
    "lat": 51.404206,
    "lng": -2.600124,
    "month": "2026-03"
  },
  {
    "category": "violent-crime",
    "street": "On or near William Jessop Way",
    "lat": 51.408251,
    "lng": -2.589638,
    "month": "2026-03"
  },
  {
    "category": "violent-crime",
    "street": "On or near Petrol Station",
    "lat": 51.406587,
    "lng": -2.598689,
    "month": "2026-03"
  },
  {
    "category": "violent-crime",
    "street": "On or near Dyers Close",
    "lat": 51.407706,
    "lng": -2.596173,
    "month": "2026-03"
  },
  {
    "category": "violent-crime",
    "street": "On or near Walwyn Gardens",
    "lat": 51.404235,
    "lng": -2.598026,
    "month": "2026-03"
  },
  {
    "category": "violent-crime",
    "street": "On or near Dyers Close",
    "lat": 51.407706,
    "lng": -2.596173,
    "month": "2026-03"
  },
  {
    "category": "violent-crime",
    "street": "On or near The Primroses",
    "lat": 51.407254,
    "lng": -2.600207,
    "month": "2026-03"
  },
  {
    "category": "violent-crime",
    "street": "On or near Walwyn Gardens",
    "lat": 51.404235,
    "lng": -2.598026,
    "month": "2026-03"
  },
  {
    "category": "violent-crime",
    "street": "On or near Petrol Station",
    "lat": 51.406587,
    "lng": -2.598689,
    "month": "2026-03"
  },
  {
    "category": "violent-crime",
    "street": "On or near Holbrook Crescent",
    "lat": 51.40514,
    "lng": -2.596873,
    "month": "2026-03"
  },
  {
    "category": "violent-crime",
    "street": "On or near The Brambles",
    "lat": 51.407491,
    "lng": -2.599477,
    "month": "2026-03"
  },
  {
    "category": "violent-crime",
    "street": "On or near Lampton Avenue",
    "lat": 51.404014,
    "lng": -2.590001,
    "month": "2026-03"
  },
  {
    "category": "violent-crime",
    "street": "On or near Cromford Close",
    "lat": 51.407281,
    "lng": -2.591193,
    "month": "2026-03"
  },
  {
    "category": "violent-crime",
    "street": "On or near Dyers Close",
    "lat": 51.407706,
    "lng": -2.596173,
    "month": "2026-03"
  },
  {
    "category": "other-crime",
    "street": "On or near Cromford Close",
    "lat": 51.407281,
    "lng": -2.591193,
    "month": "2026-03"
  },
  {
    "category": "other-crime",
    "street": "On or near Knightsbridge Park",
    "lat": 51.406336,
    "lng": -2.584266,
    "month": "2026-03"
  },
  {
    "category": "other-crime",
    "street": "On or near Cromford Close",
    "lat": 51.407281,
    "lng": -2.591193,
    "month": "2026-03"
  },
  {
    "category": "other-crime",
    "street": "On or near Churston Close",
    "lat": 51.403363,
    "lng": -2.570844,
    "month": "2026-03"
  },
  {
    "category": "other-crime",
    "street": "On or near The Groves",
    "lat": 51.405297,
    "lng": -2.592504,
    "month": "2026-03"
  },
  {
    "category": "other-crime",
    "street": "On or near The Groves",
    "lat": 51.405297,
    "lng": -2.592504,
    "month": "2026-03"
  },
  {
    "category": "other-crime",
    "street": "On or near Branche Grove",
    "lat": 51.404547,
    "lng": -2.594939,
    "month": "2026-03"
  },
  {
    "category": "anti-social-behaviour",
    "street": "On or near Woollard Lane",
    "lat": 51.390757,
    "lng": -2.536496,
    "month": "2026-03"
  },
  {
    "category": "anti-social-behaviour",
    "street": "On or near Woollard Lane",
    "lat": 51.390757,
    "lng": -2.536496,
    "month": "2026-03"
  },
  {
    "category": "drugs",
    "street": "On or near Hamilton Way",
    "lat": 51.404057,
    "lng": -2.553615,
    "month": "2026-03"
  },
  {
    "category": "public-order",
    "street": "On or near Woollard Lane",
    "lat": 51.390757,
    "lng": -2.536496,
    "month": "2026-03"
  },
  {
    "category": "vehicle-crime",
    "street": "On or near Bridle Avenue",
    "lat": 51.40368,
    "lng": -2.551684,
    "month": "2026-03"
  },
  {
    "category": "vehicle-crime",
    "street": "On or near Staunton Lane",
    "lat": 51.405113,
    "lng": -2.552722,
    "month": "2026-03"
  },
  {
    "category": "violent-crime",
    "street": "On or near The Witheys",
    "lat": 51.407528,
    "lng": -2.557496,
    "month": "2026-03"
  },
  {
    "category": "violent-crime",
    "street": "On or near Farrier Way",
    "lat": 51.403983,
    "lng": -2.552292,
    "month": "2026-03"
  },
  {
    "category": "violent-crime",
    "street": "On or near The Witheys",
    "lat": 51.407528,
    "lng": -2.557496,
    "month": "2026-03"
  },
  {
    "category": "violent-crime",
    "street": "On or near The Witheys",
    "lat": 51.407528,
    "lng": -2.557496,
    "month": "2026-03"
  },
  {
    "category": "violent-crime",
    "street": "On or near Oldbridge Road",
    "lat": 51.405073,
    "lng": -2.555554,
    "month": "2026-03"
  },
  {
    "category": "other-crime",
    "street": "On or near Saxon Close",
    "lat": 51.403437,
    "lng": -2.549741,
    "month": "2026-03"
  },
  {
    "category": "burglary",
    "street": "On or near Serse Close",
    "lat": 51.400223,
    "lng": -2.515087,
    "month": "2026-03"
  },
  {
    "category": "burglary",
    "street": "On or near Birch Court",
    "lat": 51.406569,
    "lng": -2.513419,
    "month": "2026-03"
  },
  {
    "category": "other-theft",
    "street": "On or near Fieldfare Close",
    "lat": 51.403017,
    "lng": -2.515564,
    "month": "2026-03"
  },
  {
    "category": "public-order",
    "street": "On or near Parkhouse Lane",
    "lat": 51.400386,
    "lng": -2.512789,
    "month": "2026-03"
  },
  {
    "category": "violent-crime",
    "street": "On or near Alcina Way",
    "lat": 51.399842,
    "lng": -2.515701,
    "month": "2026-03"
  },
  {
    "category": "anti-social-behaviour",
    "street": "On or near Minsmere Road",
    "lat": 51.405912,
    "lng": -2.48394,
    "month": "2026-03"
  },
  {
    "category": "anti-social-behaviour",
    "street": "On or near Rhode Close",
    "lat": 51.401552,
    "lng": -2.486021,
    "month": "2026-03"
  },
  {
    "category": "anti-social-behaviour",
    "street": "On or near Calder Close",
    "lat": 51.406488,
    "lng": -2.483831,
    "month": "2026-03"
  },
  {
    "category": "criminal-damage-arson",
    "street": "On or near Teviot Road",
    "lat": 51.408268,
    "lng": -2.483993,
    "month": "2026-03"
  },
  {
    "category": "other-theft",
    "street": "On or near Lytes Cary Road",
    "lat": 51.401018,
    "lng": -2.486863,
    "month": "2026-03"
  },
  {
    "category": "possession-of-weapons",
    "street": "On or near Willow Walk",
    "lat": 51.405741,
    "lng": -2.507515,
    "month": "2026-03"
  },
  {
    "category": "public-order",
    "street": "On or near Teviot Road",
    "lat": 51.408268,
    "lng": -2.483993,
    "month": "2026-03"
  },
  {
    "category": "public-order",
    "street": "On or near Teviot Road",
    "lat": 51.408268,
    "lng": -2.483993,
    "month": "2026-03"
  },
  {
    "category": "vehicle-crime",
    "street": "On or near Medway Close",
    "lat": 51.404639,
    "lng": -2.489562,
    "month": "2026-03"
  },
  {
    "category": "violent-crime",
    "street": "On or near Teviot Road",
    "lat": 51.408268,
    "lng": -2.483993,
    "month": "2026-03"
  },
  {
    "category": "violent-crime",
    "street": "On or near Conway Green",
    "lat": 51.404619,
    "lng": -2.488023,
    "month": "2026-03"
  },
  {
    "category": "violent-crime",
    "street": "On or near Windrush Road",
    "lat": 51.407098,
    "lng": -2.486382,
    "month": "2026-03"
  },
  {
    "category": "violent-crime",
    "street": "On or near Windrush Road",
    "lat": 51.407098,
    "lng": -2.486382,
    "month": "2026-03"
  },
  {
    "category": "violent-crime",
    "street": "On or near Clyde Avenue",
    "lat": 51.406673,
    "lng": -2.49138,
    "month": "2026-03"
  },
  {
    "category": "violent-crime",
    "street": "On or near Greenfield Road",
    "lat": 51.403933,
    "lng": -2.505526,
    "month": "2026-03"
  },
  {
    "category": "violent-crime",
    "street": "On or near Greenfield Road",
    "lat": 51.403933,
    "lng": -2.505526,
    "month": "2026-03"
  },
  {
    "category": "violent-crime",
    "street": "On or near Chandag Road",
    "lat": 51.408997,
    "lng": -2.488242,
    "month": "2026-03"
  },
  {
    "category": "violent-crime",
    "street": "On or near The Mead",
    "lat": 51.404325,
    "lng": -2.504208,
    "month": "2026-03"
  },
  {
    "category": "violent-crime",
    "street": "On or near Willow Walk",
    "lat": 51.405741,
    "lng": -2.507515,
    "month": "2026-03"
  },
  {
    "category": "violent-crime",
    "street": "On or near Willow Walk",
    "lat": 51.405741,
    "lng": -2.507515,
    "month": "2026-03"
  },
  {
    "category": "violent-crime",
    "street": "On or near Minsmere Road",
    "lat": 51.405912,
    "lng": -2.48394,
    "month": "2026-03"
  },
  {
    "category": "violent-crime",
    "street": "On or near Windrush Road",
    "lat": 51.407098,
    "lng": -2.486382,
    "month": "2026-03"
  },
  {
    "category": "violent-crime",
    "street": "On or near Lulworth Road",
    "lat": 51.407479,
    "lng": -2.50269,
    "month": "2026-03"
  },
  {
    "category": "burglary",
    "street": "On or near Haselbury Grove",
    "lat": 51.398232,
    "lng": -2.459839,
    "month": "2026-03"
  },
  {
    "category": "other-theft",
    "street": "On or near Claverton Road",
    "lat": 51.40104,
    "lng": -2.461391,
    "month": "2026-03"
  },
  {
    "category": "other-theft",
    "street": "On or near Beech Road",
    "lat": 51.403063,
    "lng": -2.456883,
    "month": "2026-03"
  },
  {
    "category": "other-theft",
    "street": "On or near Beech Road",
    "lat": 51.403063,
    "lng": -2.456883,
    "month": "2026-03"
  },
  {
    "category": "violent-crime",
    "street": "On or near Keppel Close",
    "lat": 51.400912,
    "lng": -2.466493,
    "month": "2026-03"
  },
  {
    "category": "violent-crime",
    "street": "On or near The Folly",
    "lat": 51.397108,
    "lng": -2.450456,
    "month": "2026-03"
  },
  {
    "category": "violent-crime",
    "street": "On or near Jena Court",
    "lat": 51.403874,
    "lng": -2.463317,
    "month": "2026-03"
  },
  {
    "category": "violent-crime",
    "street": "On or near Chestnut Walk",
    "lat": 51.402375,
    "lng": -2.455669,
    "month": "2026-03"
  },
  {
    "category": "violent-crime",
    "street": "On or near Jena Court",
    "lat": 51.403874,
    "lng": -2.463317,
    "month": "2026-03"
  },
  {
    "category": "violent-crime",
    "street": "On or near Jena Court",
    "lat": 51.403874,
    "lng": -2.463317,
    "month": "2026-03"
  },
  {
    "category": "anti-social-behaviour",
    "street": "On or near Westfield Road",
    "lat": 51.416551,
    "lng": -2.745755,
    "month": "2026-03"
  },
  {
    "category": "anti-social-behaviour",
    "street": "On or near Bucklands Drive",
    "lat": 51.424069,
    "lng": -2.748438,
    "month": "2026-03"
  },
  {
    "category": "burglary",
    "street": "On or near Station Road",
    "lat": 51.427634,
    "lng": -2.751962,
    "month": "2026-03"
  },
  {
    "category": "burglary",
    "street": "On or near Tetbury Gardens",
    "lat": 51.429288,
    "lng": -2.747847,
    "month": "2026-03"
  },
  {
    "category": "burglary",
    "street": "On or near Station Road",
    "lat": 51.427634,
    "lng": -2.751962,
    "month": "2026-03"
  },
  {
    "category": "criminal-damage-arson",
    "street": "On or near Four Acres Close",
    "lat": 51.424427,
    "lng": -2.757102,
    "month": "2026-03"
  },
  {
    "category": "criminal-damage-arson",
    "street": "On or near Nowhere Lane",
    "lat": 51.427907,
    "lng": -2.745955,
    "month": "2026-03"
  },
  {
    "category": "drugs",
    "street": "On or near Wookey Close",
    "lat": 51.424049,
    "lng": -2.755873,
    "month": "2026-03"
  },
  {
    "category": "drugs",
    "street": "On or near Wookey Close",
    "lat": 51.424049,
    "lng": -2.755873,
    "month": "2026-03"
  },
  {
    "category": "drugs",
    "street": "On or near Cadogan Grove",
    "lat": 51.414555,
    "lng": -2.738605,
    "month": "2026-03"
  },
  {
    "category": "drugs",
    "street": "On or near Wookey Close",
    "lat": 51.424049,
    "lng": -2.755873,
    "month": "2026-03"
  },
  {
    "category": "other-theft",
    "street": "On or near Westfield Drive",
    "lat": 51.415642,
    "lng": -2.747337,
    "month": "2026-03"
  },
  {
    "category": "other-theft",
    "street": "On or near Westfield Close",
    "lat": 51.415471,
    "lng": -2.745968,
    "month": "2026-03"
  },
  {
    "category": "public-order",
    "street": "On or near Church Town",
    "lat": 51.410265,
    "lng": -2.731735,
    "month": "2026-03"
  },
  {
    "category": "public-order",
    "street": "On or near Chelvey Road",
    "lat": 51.411287,
    "lng": -2.76869,
    "month": "2026-03"
  },
  {
    "category": "vehicle-crime",
    "street": "On or near Petrol Station",
    "lat": 51.419213,
    "lng": -2.749955,
    "month": "2026-03"
  },
  {
    "category": "violent-crime",
    "street": "On or near Hilldale Road",
    "lat": 51.410437,
    "lng": -2.73861,
    "month": "2026-03"
  },
  {
    "category": "violent-crime",
    "street": "On or near Westfield Road",
    "lat": 51.416551,
    "lng": -2.745755,
    "month": "2026-03"
  },
  {
    "category": "violent-crime",
    "street": "On or near Moor Lane",
    "lat": 51.416571,
    "lng": -2.752457,
    "month": "2026-03"
  },
  {
    "category": "violent-crime",
    "street": "On or near Colliers Gardens",
    "lat": 51.418228,
    "lng": -2.750801,
    "month": "2026-03"
  },
  {
    "category": "violent-crime",
    "street": "On or near Church Town",
    "lat": 51.410265,
    "lng": -2.731735,
    "month": "2026-03"
  },
  {
    "category": "violent-crime",
    "street": "On or near Westfield Drive",
    "lat": 51.415642,
    "lng": -2.747337,
    "month": "2026-03"
  },
  {
    "category": "violent-crime",
    "street": "On or near Cadogan Grove",
    "lat": 51.414555,
    "lng": -2.738605,
    "month": "2026-03"
  },
  {
    "category": "violent-crime",
    "street": "On or near Westfield Drive",
    "lat": 51.415642,
    "lng": -2.747337,
    "month": "2026-03"
  },
  {
    "category": "violent-crime",
    "street": "On or near Hilldale Road",
    "lat": 51.410437,
    "lng": -2.73861,
    "month": "2026-03"
  },
  {
    "category": "other-crime",
    "street": "On or near Westfield Road",
    "lat": 51.416551,
    "lng": -2.745755,
    "month": "2026-03"
  },
  {
    "category": "anti-social-behaviour",
    "street": "On or near Station Road",
    "lat": 51.422374,
    "lng": -2.705739,
    "month": "2026-03"
  },
  {
    "category": "anti-social-behaviour",
    "street": "On or near Station Road",
    "lat": 51.422374,
    "lng": -2.705739,
    "month": "2026-03"
  },
  {
    "category": "anti-social-behaviour",
    "street": "On or near Bourton Mead",
    "lat": 51.422419,
    "lng": -2.707264,
    "month": "2026-03"
  },
  {
    "category": "criminal-damage-arson",
    "street": "On or near Parking Area",
    "lat": 51.420952,
    "lng": -2.698397,
    "month": "2026-03"
  },
  {
    "category": "drugs",
    "street": "On or near Main Road",
    "lat": 51.421086,
    "lng": -2.706078,
    "month": "2026-03"
  },
  {
    "category": "drugs",
    "street": "On or near Backwell Hill Road",
    "lat": 51.418622,
    "lng": -2.722435,
    "month": "2026-03"
  },
  {
    "category": "drugs",
    "street": "On or near Castle Close",
    "lat": 51.421371,
    "lng": -2.712555,
    "month": "2026-03"
  },
  {
    "category": "other-theft",
    "street": "On or near Bourton Combe",
    "lat": 51.420063,
    "lng": -2.708795,
    "month": "2026-03"
  },
  {
    "category": "violent-crime",
    "street": "On or near Bourton Mead",
    "lat": 51.422419,
    "lng": -2.707264,
    "month": "2026-03"
  },
  {
    "category": "violent-crime",
    "street": "On or near Main Road",
    "lat": 51.421086,
    "lng": -2.706078,
    "month": "2026-03"
  },
  {
    "category": "anti-social-behaviour",
    "street": "On or near Wildcountry Lane",
    "lat": 51.417137,
    "lng": -2.671203,
    "month": "2026-03"
  },
  {
    "category": "other-theft",
    "street": "On or near Kings Croft",
    "lat": 51.427692,
    "lng": -2.672983,
    "month": "2026-03"
  },
  {
    "category": "violent-crime",
    "street": "On or near Pear Tree Avenue",
    "lat": 51.426185,
    "lng": -2.670803,
    "month": "2026-03"
  },
  {
    "category": "violent-crime",
    "street": "On or near Bramley Copse",
    "lat": 51.426489,
    "lng": -2.671124,
    "month": "2026-03"
  },
  {
    "category": "violent-crime",
    "street": "On or near Weston Road",
    "lat": 51.42439,
    "lng": -2.687274,
    "month": "2026-03"
  },
  {
    "category": "violent-crime",
    "street": "On or near Wildcountry Lane",
    "lat": 51.417137,
    "lng": -2.671203,
    "month": "2026-03"
  },
  {
    "category": "violent-crime",
    "street": "On or near B3130",
    "lat": 51.41379,
    "lng": -2.687086,
    "month": "2026-03"
  },
  {
    "category": "violent-crime",
    "street": "On or near B3130",
    "lat": 51.41379,
    "lng": -2.687086,
    "month": "2026-03"
  },
  {
    "category": "other-theft",
    "street": "On or near Martha's Orchard",
    "lat": 51.420724,
    "lng": -2.630944,
    "month": "2026-03"
  },
  {
    "category": "violent-crime",
    "street": "On or near Petrol Station",
    "lat": 51.409772,
    "lng": -2.648638,
    "month": "2026-03"
  },
  {
    "category": "violent-crime",
    "street": "On or near Petrol Station",
    "lat": 51.409772,
    "lng": -2.648638,
    "month": "2026-03"
  },
  {
    "category": "violent-crime",
    "street": "On or near Park/open Space",
    "lat": 51.412415,
    "lng": -2.628696,
    "month": "2026-03"
  },
  {
    "category": "anti-social-behaviour",
    "street": "On or near Gatcombe Road",
    "lat": 51.411979,
    "lng": -2.606265,
    "month": "2026-03"
  },
  {
    "category": "anti-social-behaviour",
    "street": "On or near Gatehouse Close",
    "lat": 51.411657,
    "lng": -2.614528,
    "month": "2026-03"
  },
  {
    "category": "anti-social-behaviour",
    "street": "On or near Eastridge Drive",
    "lat": 51.413554,
    "lng": -2.621427,
    "month": "2026-03"
  },
  {
    "category": "anti-social-behaviour",
    "street": "On or near St Peter's Rise",
    "lat": 51.420754,
    "lng": -2.611616,
    "month": "2026-03"
  },
  {
    "category": "anti-social-behaviour",
    "street": "On or near Shopping Area",
    "lat": 51.41512,
    "lng": -2.599867,
    "month": "2026-03"
  },
  {
    "category": "anti-social-behaviour",
    "street": "On or near Shopping Area",
    "lat": 51.416344,
    "lng": -2.602009,
    "month": "2026-03"
  },
  {
    "category": "anti-social-behaviour",
    "street": "On or near Park/open Space",
    "lat": 51.415302,
    "lng": -2.603519,
    "month": "2026-03"
  },
  {
    "category": "anti-social-behaviour",
    "street": "On or near Shopping Area",
    "lat": 51.416344,
    "lng": -2.602009,
    "month": "2026-03"
  },
  {
    "category": "anti-social-behaviour",
    "street": "On or near Cheddar Grove",
    "lat": 51.424126,
    "lng": -2.616824,
    "month": "2026-03"
  },
  {
    "category": "anti-social-behaviour",
    "street": "On or near Grange Road",
    "lat": 51.412523,
    "lng": -2.619228,
    "month": "2026-03"
  },
  {
    "category": "anti-social-behaviour",
    "street": "On or near Kings Chase",
    "lat": 51.420961,
    "lng": -2.630228,
    "month": "2026-03"
  },
  {
    "category": "anti-social-behaviour",
    "street": "On or near Shopping Area",
    "lat": 51.416344,
    "lng": -2.602009,
    "month": "2026-03"
  },
  {
    "category": "anti-social-behaviour",
    "street": "On or near Sallysmead Close",
    "lat": 51.408207,
    "lng": -2.605381,
    "month": "2026-03"
  },
  {
    "category": "anti-social-behaviour",
    "street": "On or near Acorn Grove",
    "lat": 51.414697,
    "lng": -2.627913,
    "month": "2026-03"
  },
  {
    "category": "anti-social-behaviour",
    "street": "On or near Smithmead",
    "lat": 51.410522,
    "lng": -2.609768,
    "month": "2026-03"
  },
  {
    "category": "anti-social-behaviour",
    "street": "On or near Moxham Drive",
    "lat": 51.406325,
    "lng": -2.604206,
    "month": "2026-03"
  },
  {
    "category": "anti-social-behaviour",
    "street": "On or near Coldpark Road",
    "lat": 51.409889,
    "lng": -2.629257,
    "month": "2026-03"
  },
  {
    "category": "anti-social-behaviour",
    "street": "On or near Bishopsworth Road",
    "lat": 51.423704,
    "lng": -2.614978,
    "month": "2026-03"
  },
  {
    "category": "anti-social-behaviour",
    "street": "On or near Mill Paddock",
    "lat": 51.412599,
    "lng": -2.608157,
    "month": "2026-03"
  },
  {
    "category": "anti-social-behaviour",
    "street": "On or near Shopping Area",
    "lat": 51.416344,
    "lng": -2.602009,
    "month": "2026-03"
  },
  {
    "category": "anti-social-behaviour",
    "street": "On or near Keble Avenue",
    "lat": 51.409562,
    "lng": -2.624852,
    "month": "2026-03"
  },
  {
    "category": "anti-social-behaviour",
    "street": "On or near Sallysmead Close",
    "lat": 51.408207,
    "lng": -2.605381,
    "month": "2026-03"
  },
  {
    "category": "anti-social-behaviour",
    "street": "On or near Alexandra Road",
    "lat": 51.419999,
    "lng": -2.621845,
    "month": "2026-03"
  },
  {
    "category": "anti-social-behaviour",
    "street": "On or near Parking Area",
    "lat": 51.416138,
    "lng": -2.600036,
    "month": "2026-03"
  },
  {
    "category": "anti-social-behaviour",
    "street": "On or near Gatehouse Close",
    "lat": 51.411657,
    "lng": -2.614528,
    "month": "2026-03"
  },
  {
    "category": "anti-social-behaviour",
    "street": "On or near Parking Area",
    "lat": 51.416138,
    "lng": -2.600036,
    "month": "2026-03"
  },
  {
    "category": "anti-social-behaviour",
    "street": "On or near Gatehouse Court",
    "lat": 51.412199,
    "lng": -2.61235,
    "month": "2026-03"
  },
  {
    "category": "anti-social-behaviour",
    "street": "On or near Lilton Walk",
    "lat": 51.428038,
    "lng": -2.614935,
    "month": "2026-03"
  },
  {
    "category": "anti-social-behaviour",
    "street": "On or near Smithmead",
    "lat": 51.410522,
    "lng": -2.609768,
    "month": "2026-03"
  },
  {
    "category": "anti-social-behaviour",
    "street": "On or near Stillingfleet Road",
    "lat": 51.411719,
    "lng": -2.602681,
    "month": "2026-03"
  },
  {
    "category": "anti-social-behaviour",
    "street": "On or near Poole Close",
    "lat": 51.412067,
    "lng": -2.603247,
    "month": "2026-03"
  },
  {
    "category": "anti-social-behaviour",
    "street": "On or near Gatehouse Way",
    "lat": 51.411951,
    "lng": -2.613368,
    "month": "2026-03"
  },
  {
    "category": "anti-social-behaviour",
    "street": "On or near Supermarket",
    "lat": 51.414416,
    "lng": -2.611388,
    "month": "2026-03"
  },
  {
    "category": "anti-social-behaviour",
    "street": "On or near King's Head Lane",
    "lat": 51.420244,
    "lng": -2.623172,
    "month": "2026-03"
  },
  {
    "category": "anti-social-behaviour",
    "street": "On or near Kenney Street",
    "lat": 51.414591,
    "lng": -2.600275,
    "month": "2026-03"
  },
  {
    "category": "anti-social-behaviour",
    "street": "On or near Sallysmead Close",
    "lat": 51.408207,
    "lng": -2.605381,
    "month": "2026-03"
  },
  {
    "category": "anti-social-behaviour",
    "street": "On or near Farleigh Walk",
    "lat": 51.423531,
    "lng": -2.618787,
    "month": "2026-03"
  },
  {
    "category": "anti-social-behaviour",
    "street": "On or near St Peter's Rise",
    "lat": 51.420754,
    "lng": -2.611616,
    "month": "2026-03"
  },
  {
    "category": "anti-social-behaviour",
    "street": "On or near Wraxall Grove",
    "lat": 51.42297,
    "lng": -2.619398,
    "month": "2026-03"
  },
  {
    "category": "anti-social-behaviour",
    "street": "On or near Colemead",
    "lat": 51.41371,
    "lng": -2.61237,
    "month": "2026-03"
  },
  {
    "category": "anti-social-behaviour",
    "street": "On or near Shopping Area",
    "lat": 51.416344,
    "lng": -2.602009,
    "month": "2026-03"
  },
  {
    "category": "anti-social-behaviour",
    "street": "On or near Shopping Area",
    "lat": 51.41512,
    "lng": -2.599867,
    "month": "2026-03"
  },
  {
    "category": "anti-social-behaviour",
    "street": "On or near Shopping Area",
    "lat": 51.41512,
    "lng": -2.599867,
    "month": "2026-03"
  },
  {
    "category": "anti-social-behaviour",
    "street": "On or near Denston Walk",
    "lat": 51.42096,
    "lng": -2.616954,
    "month": "2026-03"
  },
  {
    "category": "anti-social-behaviour",
    "street": "On or near Shopping Area",
    "lat": 51.41512,
    "lng": -2.599867,
    "month": "2026-03"
  },
  {
    "category": "anti-social-behaviour",
    "street": "On or near Shopping Area",
    "lat": 51.41512,
    "lng": -2.599867,
    "month": "2026-03"
  },
  {
    "category": "anti-social-behaviour",
    "street": "On or near Innox Gardens",
    "lat": 51.411104,
    "lng": -2.61547,
    "month": "2026-03"
  },
  {
    "category": "anti-social-behaviour",
    "street": "On or near Moxham Drive",
    "lat": 51.406325,
    "lng": -2.604206,
    "month": "2026-03"
  },
  {
    "category": "burglary",
    "street": "On or near Templeland Road",
    "lat": 51.409352,
    "lng": -2.625425,
    "month": "2026-03"
  },
  {
    "category": "burglary",
    "street": "On or near Farleigh Walk",
    "lat": 51.423531,
    "lng": -2.618787,
    "month": "2026-03"
  },
  {
    "category": "burglary",
    "street": "On or near Kenney Street",
    "lat": 51.414591,
    "lng": -2.600275,
    "month": "2026-03"
  },
  {
    "category": "burglary",
    "street": "On or near Oldmead Walk",
    "lat": 51.420802,
    "lng": -2.629665,
    "month": "2026-03"
  },
  {
    "category": "burglary",
    "street": "On or near Farnaby Close",
    "lat": 51.419686,
    "lng": -2.598975,
    "month": "2026-03"
  },
  {
    "category": "burglary",
    "street": "On or near Oldmead Walk",
    "lat": 51.420802,
    "lng": -2.629665,
    "month": "2026-03"
  },
  {
    "category": "burglary",
    "street": "On or near Farmwell Close",
    "lat": 51.41045,
    "lng": -2.607999,
    "month": "2026-03"
  },
  {
    "category": "criminal-damage-arson",
    "street": "On or near Fernsteed Road",
    "lat": 51.414754,
    "lng": -2.62071,
    "month": "2026-03"
  },
  {
    "category": "criminal-damage-arson",
    "street": "On or near Hillcrest Close",
    "lat": 51.417219,
    "lng": -2.611914,
    "month": "2026-03"
  },
  {
    "category": "criminal-damage-arson",
    "street": "On or near Walnut Walk",
    "lat": 51.417841,
    "lng": -2.616697,
    "month": "2026-03"
  },
  {
    "category": "criminal-damage-arson",
    "street": "On or near Lakemead Grove",
    "lat": 51.416048,
    "lng": -2.624265,
    "month": "2026-03"
  },
  {
    "category": "criminal-damage-arson",
    "street": "On or near Gatehouse Court",
    "lat": 51.412199,
    "lng": -2.61235,
    "month": "2026-03"
  },
  {
    "category": "criminal-damage-arson",
    "street": "On or near Shopping Area",
    "lat": 51.416344,
    "lng": -2.602009,
    "month": "2026-03"
  },
  {
    "category": "criminal-damage-arson",
    "street": "On or near Kenney Street",
    "lat": 51.414591,
    "lng": -2.600275,
    "month": "2026-03"
  },
  {
    "category": "criminal-damage-arson",
    "street": "On or near Tyntesfield Road",
    "lat": 51.422879,
    "lng": -2.617972,
    "month": "2026-03"
  },
  {
    "category": "criminal-damage-arson",
    "street": "On or near Bishops Cove",
    "lat": 51.412107,
    "lng": -2.621278,
    "month": "2026-03"
  },
  {
    "category": "criminal-damage-arson",
    "street": "On or near Stillingfleet Road",
    "lat": 51.411719,
    "lng": -2.602681,
    "month": "2026-03"
  },
  {
    "category": "criminal-damage-arson",
    "street": "On or near Gould Close",
    "lat": 51.410431,
    "lng": -2.597876,
    "month": "2026-03"
  },
  {
    "category": "criminal-damage-arson",
    "street": "On or near Gatehouse Way",
    "lat": 51.411951,
    "lng": -2.613368,
    "month": "2026-03"
  },
  {
    "category": "criminal-damage-arson",
    "street": "On or near Shopping Area",
    "lat": 51.416344,
    "lng": -2.602009,
    "month": "2026-03"
  },
  {
    "category": "criminal-damage-arson",
    "street": "On or near Supermarket",
    "lat": 51.414416,
    "lng": -2.611388,
    "month": "2026-03"
  },
  {
    "category": "criminal-damage-arson",
    "street": "On or near Shopping Area",
    "lat": 51.416344,
    "lng": -2.602009,
    "month": "2026-03"
  },
  {
    "category": "criminal-damage-arson",
    "street": "On or near Kings Chase",
    "lat": 51.420961,
    "lng": -2.630228,
    "month": "2026-03"
  },
  {
    "category": "criminal-damage-arson",
    "street": "On or near Kenney Street",
    "lat": 51.414591,
    "lng": -2.600275,
    "month": "2026-03"
  },
  {
    "category": "criminal-damage-arson",
    "street": "On or near Randolph Close",
    "lat": 51.410159,
    "lng": -2.605263,
    "month": "2026-03"
  },
  {
    "category": "drugs",
    "street": "On or near Gatehouse Close",
    "lat": 51.411657,
    "lng": -2.614528,
    "month": "2026-03"
  },
  {
    "category": "drugs",
    "street": "On or near Gatehouse Way",
    "lat": 51.411951,
    "lng": -2.613368,
    "month": "2026-03"
  },
  {
    "category": "drugs",
    "street": "On or near Smithmead",
    "lat": 51.410522,
    "lng": -2.609768,
    "month": "2026-03"
  },
  {
    "category": "drugs",
    "street": "On or near Gatehouse Avenue",
    "lat": 51.410845,
    "lng": -2.615093,
    "month": "2026-03"
  },
  {
    "category": "other-theft",
    "street": "On or near Randolph Avenue",
    "lat": 51.410417,
    "lng": -2.605827,
    "month": "2026-03"
  },
  {
    "category": "other-theft",
    "street": "On or near Supermarket",
    "lat": 51.414416,
    "lng": -2.611388,
    "month": "2026-03"
  },
  {
    "category": "other-theft",
    "street": "On or near Gatehouse Way",
    "lat": 51.411951,
    "lng": -2.613368,
    "month": "2026-03"
  },
  {
    "category": "other-theft",
    "street": "On or near Lewis Road",
    "lat": 51.425729,
    "lng": -2.612905,
    "month": "2026-03"
  },
  {
    "category": "possession-of-weapons",
    "street": "On or near Gatehouse Avenue",
    "lat": 51.410845,
    "lng": -2.615093,
    "month": "2026-03"
  },
  {
    "category": "possession-of-weapons",
    "street": "On or near Gatehouse Way",
    "lat": 51.411951,
    "lng": -2.613368,
    "month": "2026-03"
  },
  {
    "category": "possession-of-weapons",
    "street": "On or near Chapel Road",
    "lat": 51.41561,
    "lng": -2.616983,
    "month": "2026-03"
  },
  {
    "category": "public-order",
    "street": "On or near Lilton Walk",
    "lat": 51.428038,
    "lng": -2.614935,
    "month": "2026-03"
  },
  {
    "category": "public-order",
    "street": "On or near Supermarket",
    "lat": 51.414416,
    "lng": -2.611388,
    "month": "2026-03"
  },
  {
    "category": "public-order",
    "street": "On or near Riverland Drive",
    "lat": 51.40948,
    "lng": -2.621573,
    "month": "2026-03"
  },
  {
    "category": "public-order",
    "street": "On or near Grange Road",
    "lat": 51.412523,
    "lng": -2.619228,
    "month": "2026-03"
  },
  {
    "category": "public-order",
    "street": "On or near Ilex Close",
    "lat": 51.416757,
    "lng": -2.621154,
    "month": "2026-03"
  },
  {
    "category": "public-order",
    "street": "On or near Maynard Close",
    "lat": 51.412247,
    "lng": -2.599539,
    "month": "2026-03"
  },
  {
    "category": "public-order",
    "street": "On or near Supermarket",
    "lat": 51.414416,
    "lng": -2.611388,
    "month": "2026-03"
  },
  {
    "category": "public-order",
    "street": "On or near Shopping Area",
    "lat": 51.416344,
    "lng": -2.602009,
    "month": "2026-03"
  },
  {
    "category": "public-order",
    "street": "On or near Stillingfleet Road",
    "lat": 51.411719,
    "lng": -2.602681,
    "month": "2026-03"
  },
  {
    "category": "public-order",
    "street": "On or near Pavey Road",
    "lat": 51.408816,
    "lng": -2.600688,
    "month": "2026-03"
  },
  {
    "category": "public-order",
    "street": "On or near Parking Area",
    "lat": 51.416138,
    "lng": -2.600036,
    "month": "2026-03"
  },
  {
    "category": "public-order",
    "street": "On or near Chapel Road",
    "lat": 51.41561,
    "lng": -2.616983,
    "month": "2026-03"
  },
  {
    "category": "public-order",
    "street": "On or near Grange Road",
    "lat": 51.412523,
    "lng": -2.619228,
    "month": "2026-03"
  },
  {
    "category": "public-order",
    "street": "On or near Parking Area",
    "lat": 51.416138,
    "lng": -2.600036,
    "month": "2026-03"
  },
  {
    "category": "public-order",
    "street": "On or near Grange Road",
    "lat": 51.412523,
    "lng": -2.619228,
    "month": "2026-03"
  },
  {
    "category": "public-order",
    "street": "On or near Lilton Walk",
    "lat": 51.428038,
    "lng": -2.614935,
    "month": "2026-03"
  },
  {
    "category": "public-order",
    "street": "On or near Lilton Walk",
    "lat": 51.428038,
    "lng": -2.614935,
    "month": "2026-03"
  },
  {
    "category": "public-order",
    "street": "On or near Shopping Area",
    "lat": 51.416344,
    "lng": -2.602009,
    "month": "2026-03"
  },
  {
    "category": "public-order",
    "street": "On or near Parking Area",
    "lat": 51.416138,
    "lng": -2.600036,
    "month": "2026-03"
  },
  {
    "category": "robbery",
    "street": "On or near Shopping Area",
    "lat": 51.416344,
    "lng": -2.602009,
    "month": "2026-03"
  },
  {
    "category": "robbery",
    "street": "On or near Grange Road",
    "lat": 51.412523,
    "lng": -2.619228,
    "month": "2026-03"
  },
  {
    "category": "robbery",
    "street": "On or near Shopping Area",
    "lat": 51.41512,
    "lng": -2.599867,
    "month": "2026-03"
  },
  {
    "category": "robbery",
    "street": "On or near Supermarket",
    "lat": 51.414416,
    "lng": -2.611388,
    "month": "2026-03"
  },
  {
    "category": "robbery",
    "street": "On or near Stillingfleet Road",
    "lat": 51.411719,
    "lng": -2.602681,
    "month": "2026-03"
  },
  {
    "category": "robbery",
    "street": "On or near Wills Way",
    "lat": 51.415331,
    "lng": -2.597955,
    "month": "2026-03"
  },
  {
    "category": "robbery",
    "street": "On or near Grange Road",
    "lat": 51.412523,
    "lng": -2.619228,
    "month": "2026-03"
  },
  {
    "category": "robbery",
    "street": "On or near Spinney Croft",
    "lat": 51.410443,
    "lng": -2.621486,
    "month": "2026-03"
  },
  {
    "category": "robbery",
    "street": "On or near Grange Road",
    "lat": 51.412523,
    "lng": -2.619228,
    "month": "2026-03"
  },
  {
    "category": "robbery",
    "street": "On or near Supermarket",
    "lat": 51.414416,
    "lng": -2.611388,
    "month": "2026-03"
  },
  {
    "category": "robbery",
    "street": "On or near Shopping Area",
    "lat": 51.416344,
    "lng": -2.602009,
    "month": "2026-03"
  },
  {
    "category": "robbery",
    "street": "On or near Shopping Area",
    "lat": 51.41512,
    "lng": -2.599867,
    "month": "2026-03"
  },
  {
    "category": "shoplifting",
    "street": "On or near Supermarket",
    "lat": 51.414416,
    "lng": -2.611388,
    "month": "2026-03"
  },
  {
    "category": "shoplifting",
    "street": "On or near Wills Way",
    "lat": 51.415331,
    "lng": -2.597955,
    "month": "2026-03"
  },
  {
    "category": "shoplifting",
    "street": "On or near Grange Road",
    "lat": 51.412523,
    "lng": -2.619228,
    "month": "2026-03"
  },
  {
    "category": "shoplifting",
    "street": "On or near Shopping Area",
    "lat": 51.416344,
    "lng": -2.602009,
    "month": "2026-03"
  },
  {
    "category": "shoplifting",
    "street": "On or near Grange Road",
    "lat": 51.412523,
    "lng": -2.619228,
    "month": "2026-03"
  },
  {
    "category": "shoplifting",
    "street": "On or near Grange Road",
    "lat": 51.412523,
    "lng": -2.619228,
    "month": "2026-03"
  },
  {
    "category": "shoplifting",
    "street": "On or near Supermarket",
    "lat": 51.414416,
    "lng": -2.611388,
    "month": "2026-03"
  },
  {
    "category": "shoplifting",
    "street": "On or near Supermarket",
    "lat": 51.414416,
    "lng": -2.611388,
    "month": "2026-03"
  },
  {
    "category": "shoplifting",
    "street": "On or near Grange Road",
    "lat": 51.412523,
    "lng": -2.619228,
    "month": "2026-03"
  },
  {
    "category": "shoplifting",
    "street": "On or near Parking Area",
    "lat": 51.416138,
    "lng": -2.600036,
    "month": "2026-03"
  },
  {
    "category": "shoplifting",
    "street": "On or near Grange Road",
    "lat": 51.412523,
    "lng": -2.619228,
    "month": "2026-03"
  },
  {
    "category": "shoplifting",
    "street": "On or near Supermarket",
    "lat": 51.414416,
    "lng": -2.611388,
    "month": "2026-03"
  },
  {
    "category": "shoplifting",
    "street": "On or near Supermarket",
    "lat": 51.414416,
    "lng": -2.611388,
    "month": "2026-03"
  },
  {
    "category": "shoplifting",
    "street": "On or near Grange Road",
    "lat": 51.412523,
    "lng": -2.619228,
    "month": "2026-03"
  },
  {
    "category": "shoplifting",
    "street": "On or near Grange Road",
    "lat": 51.412523,
    "lng": -2.619228,
    "month": "2026-03"
  },
  {
    "category": "shoplifting",
    "street": "On or near Supermarket",
    "lat": 51.414416,
    "lng": -2.611388,
    "month": "2026-03"
  },
  {
    "category": "shoplifting",
    "street": "On or near Grange Road",
    "lat": 51.412523,
    "lng": -2.619228,
    "month": "2026-03"
  },
  {
    "category": "shoplifting",
    "street": "On or near Parking Area",
    "lat": 51.416138,
    "lng": -2.600036,
    "month": "2026-03"
  },
  {
    "category": "shoplifting",
    "street": "On or near Supermarket",
    "lat": 51.414416,
    "lng": -2.611388,
    "month": "2026-03"
  },
  {
    "category": "shoplifting",
    "street": "On or near Grange Road",
    "lat": 51.412523,
    "lng": -2.619228,
    "month": "2026-03"
  },
  {
    "category": "shoplifting",
    "street": "On or near Shopping Area",
    "lat": 51.41512,
    "lng": -2.599867,
    "month": "2026-03"
  },
  {
    "category": "shoplifting",
    "street": "On or near Grange Road",
    "lat": 51.412523,
    "lng": -2.619228,
    "month": "2026-03"
  },
  {
    "category": "shoplifting",
    "street": "On or near Grange Road",
    "lat": 51.412523,
    "lng": -2.619228,
    "month": "2026-03"
  },
  {
    "category": "shoplifting",
    "street": "On or near Grange Road",
    "lat": 51.412523,
    "lng": -2.619228,
    "month": "2026-03"
  },
  {
    "category": "shoplifting",
    "street": "On or near Grange Road",
    "lat": 51.412523,
    "lng": -2.619228,
    "month": "2026-03"
  },
  {
    "category": "shoplifting",
    "street": "On or near Grange Road",
    "lat": 51.412523,
    "lng": -2.619228,
    "month": "2026-03"
  },
  {
    "category": "shoplifting",
    "street": "On or near Grange Road",
    "lat": 51.412523,
    "lng": -2.619228,
    "month": "2026-03"
  },
  {
    "category": "shoplifting",
    "street": "On or near Wills Way",
    "lat": 51.415331,
    "lng": -2.597955,
    "month": "2026-03"
  },
  {
    "category": "shoplifting",
    "street": "On or near Grange Road",
    "lat": 51.412523,
    "lng": -2.619228,
    "month": "2026-03"
  },
  {
    "category": "shoplifting",
    "street": "On or near Supermarket",
    "lat": 51.414416,
    "lng": -2.611388,
    "month": "2026-03"
  },
  {
    "category": "shoplifting",
    "street": "On or near Supermarket",
    "lat": 51.414416,
    "lng": -2.611388,
    "month": "2026-03"
  },
  {
    "category": "shoplifting",
    "street": "On or near Parking Area",
    "lat": 51.416138,
    "lng": -2.600036,
    "month": "2026-03"
  },
  {
    "category": "shoplifting",
    "street": "On or near Grange Road",
    "lat": 51.412523,
    "lng": -2.619228,
    "month": "2026-03"
  },
  {
    "category": "shoplifting",
    "street": "On or near Grange Road",
    "lat": 51.412523,
    "lng": -2.619228,
    "month": "2026-03"
  },
  {
    "category": "shoplifting",
    "street": "On or near Parking Area",
    "lat": 51.416138,
    "lng": -2.600036,
    "month": "2026-03"
  },
  {
    "category": "shoplifting",
    "street": "On or near Grange Road",
    "lat": 51.412523,
    "lng": -2.619228,
    "month": "2026-03"
  },
  {
    "category": "shoplifting",
    "street": "On or near Shopping Area",
    "lat": 51.41512,
    "lng": -2.599867,
    "month": "2026-03"
  },
  {
    "category": "shoplifting",
    "street": "On or near Grange Road",
    "lat": 51.412523,
    "lng": -2.619228,
    "month": "2026-03"
  },
  {
    "category": "shoplifting",
    "street": "On or near Shopping Area",
    "lat": 51.416344,
    "lng": -2.602009,
    "month": "2026-03"
  },
  {
    "category": "shoplifting",
    "street": "On or near Supermarket",
    "lat": 51.414416,
    "lng": -2.611388,
    "month": "2026-03"
  },
  {
    "category": "shoplifting",
    "street": "On or near Grange Road",
    "lat": 51.412523,
    "lng": -2.619228,
    "month": "2026-03"
  },
  {
    "category": "shoplifting",
    "street": "On or near Grange Road",
    "lat": 51.412523,
    "lng": -2.619228,
    "month": "2026-03"
  },
  {
    "category": "shoplifting",
    "street": "On or near Grange Road",
    "lat": 51.412523,
    "lng": -2.619228,
    "month": "2026-03"
  },
  {
    "category": "shoplifting",
    "street": "On or near Supermarket",
    "lat": 51.414416,
    "lng": -2.611388,
    "month": "2026-03"
  },
  {
    "category": "shoplifting",
    "street": "On or near Grange Road",
    "lat": 51.412523,
    "lng": -2.619228,
    "month": "2026-03"
  },
  {
    "category": "shoplifting",
    "street": "On or near Grange Road",
    "lat": 51.412523,
    "lng": -2.619228,
    "month": "2026-03"
  },
  {
    "category": "shoplifting",
    "street": "On or near Supermarket",
    "lat": 51.414416,
    "lng": -2.611388,
    "month": "2026-03"
  },
  {
    "category": "shoplifting",
    "street": "On or near Shopping Area",
    "lat": 51.416344,
    "lng": -2.602009,
    "month": "2026-03"
  },
  {
    "category": "shoplifting",
    "street": "On or near Wills Way",
    "lat": 51.415331,
    "lng": -2.597955,
    "month": "2026-03"
  },
  {
    "category": "shoplifting",
    "street": "On or near Grange Road",
    "lat": 51.412523,
    "lng": -2.619228,
    "month": "2026-03"
  },
  {
    "category": "shoplifting",
    "street": "On or near Supermarket",
    "lat": 51.414416,
    "lng": -2.611388,
    "month": "2026-03"
  },
  {
    "category": "shoplifting",
    "street": "On or near Grange Road",
    "lat": 51.412523,
    "lng": -2.619228,
    "month": "2026-03"
  },
  {
    "category": "shoplifting",
    "street": "On or near Grange Road",
    "lat": 51.412523,
    "lng": -2.619228,
    "month": "2026-03"
  },
  {
    "category": "shoplifting",
    "street": "On or near Grange Road",
    "lat": 51.412523,
    "lng": -2.619228,
    "month": "2026-03"
  },
  {
    "category": "shoplifting",
    "street": "On or near Grange Road",
    "lat": 51.412523,
    "lng": -2.619228,
    "month": "2026-03"
  },
  {
    "category": "shoplifting",
    "street": "On or near Shopping Area",
    "lat": 51.416344,
    "lng": -2.602009,
    "month": "2026-03"
  },
  {
    "category": "shoplifting",
    "street": "On or near Parking Area",
    "lat": 51.416138,
    "lng": -2.600036,
    "month": "2026-03"
  },
  {
    "category": "shoplifting",
    "street": "On or near Supermarket",
    "lat": 51.414416,
    "lng": -2.611388,
    "month": "2026-03"
  },
  {
    "category": "shoplifting",
    "street": "On or near Parking Area",
    "lat": 51.416138,
    "lng": -2.600036,
    "month": "2026-03"
  },
  {
    "category": "shoplifting",
    "street": "On or near Parking Area",
    "lat": 51.416138,
    "lng": -2.600036,
    "month": "2026-03"
  },
  {
    "category": "shoplifting",
    "street": "On or near Grange Road",
    "lat": 51.412523,
    "lng": -2.619228,
    "month": "2026-03"
  },
  {
    "category": "shoplifting",
    "street": "On or near Grange Road",
    "lat": 51.412523,
    "lng": -2.619228,
    "month": "2026-03"
  },
  {
    "category": "shoplifting",
    "street": "On or near Supermarket",
    "lat": 51.414416,
    "lng": -2.611388,
    "month": "2026-03"
  },
  {
    "category": "vehicle-crime",
    "street": "On or near Petercole Drive",
    "lat": 51.416249,
    "lng": -2.618444,
    "month": "2026-03"
  },
  {
    "category": "vehicle-crime",
    "street": "On or near Giffords Place",
    "lat": 51.420155,
    "lng": -2.617763,
    "month": "2026-03"
  },
  {
    "category": "vehicle-crime",
    "street": "On or near Gardner Avenue",
    "lat": 51.419955,
    "lng": -2.624937,
    "month": "2026-03"
  },
  {
    "category": "vehicle-crime",
    "street": "On or near Parking Area",
    "lat": 51.416138,
    "lng": -2.600036,
    "month": "2026-03"
  },
  {
    "category": "vehicle-crime",
    "street": "On or near Poole Close",
    "lat": 51.412067,
    "lng": -2.603247,
    "month": "2026-03"
  },
  {
    "category": "vehicle-crime",
    "street": "On or near Tugela Road",
    "lat": 51.420954,
    "lng": -2.623196,
    "month": "2026-03"
  },
  {
    "category": "vehicle-crime",
    "street": "On or near Watchill Close",
    "lat": 51.417509,
    "lng": -2.623336,
    "month": "2026-03"
  },
  {
    "category": "vehicle-crime",
    "street": "On or near Brooklyn Road",
    "lat": 51.426038,
    "lng": -2.610608,
    "month": "2026-03"
  },
  {
    "category": "vehicle-crime",
    "street": "On or near Tugela Road",
    "lat": 51.420954,
    "lng": -2.623196,
    "month": "2026-03"
  },
  {
    "category": "vehicle-crime",
    "street": "On or near Langford Road",
    "lat": 51.423726,
    "lng": -2.621033,
    "month": "2026-03"
  },
  {
    "category": "violent-crime",
    "street": "On or near Maynard Close",
    "lat": 51.412247,
    "lng": -2.599539,
    "month": "2026-03"
  },
  {
    "category": "violent-crime",
    "street": "On or near Maynard Close",
    "lat": 51.412247,
    "lng": -2.599539,
    "month": "2026-03"
  },
  {
    "category": "violent-crime",
    "street": "On or near Chaundey Grove",
    "lat": 51.412627,
    "lng": -2.607855,
    "month": "2026-03"
  },
  {
    "category": "violent-crime",
    "street": "On or near Privet Drive",
    "lat": 51.410741,
    "lng": -2.603991,
    "month": "2026-03"
  },
  {
    "category": "violent-crime",
    "street": "On or near Lamington Close",
    "lat": 51.417995,
    "lng": -2.623227,
    "month": "2026-03"
  },
  {
    "category": "violent-crime",
    "street": "On or near Mill Paddock",
    "lat": 51.412599,
    "lng": -2.608157,
    "month": "2026-03"
  },
  {
    "category": "violent-crime",
    "street": "On or near Randolph Avenue",
    "lat": 51.410417,
    "lng": -2.605827,
    "month": "2026-03"
  },
  {
    "category": "violent-crime",
    "street": "On or near Privet Drive",
    "lat": 51.410741,
    "lng": -2.603991,
    "month": "2026-03"
  },
  {
    "category": "violent-crime",
    "street": "On or near Colemead",
    "lat": 51.41371,
    "lng": -2.61237,
    "month": "2026-03"
  },
  {
    "category": "violent-crime",
    "street": "On or near Randolph Close",
    "lat": 51.410159,
    "lng": -2.605263,
    "month": "2026-03"
  },
  {
    "category": "violent-crime",
    "street": "On or near Lock Gardens",
    "lat": 51.419349,
    "lng": -2.627316,
    "month": "2026-03"
  },
  {
    "category": "violent-crime",
    "street": "On or near Chapel Road",
    "lat": 51.41561,
    "lng": -2.616983,
    "month": "2026-03"
  },
  {
    "category": "violent-crime",
    "street": "On or near Blackthorn Close",
    "lat": 51.411747,
    "lng": -2.597247,
    "month": "2026-03"
  },
  {
    "category": "violent-crime",
    "street": "On or near Poole Close",
    "lat": 51.412067,
    "lng": -2.603247,
    "month": "2026-03"
  },
  {
    "category": "violent-crime",
    "street": "On or near Cheddar Grove",
    "lat": 51.424126,
    "lng": -2.616824,
    "month": "2026-03"
  },
  {
    "category": "violent-crime",
    "street": "On or near Cheddar Grove",
    "lat": 51.424126,
    "lng": -2.616824,
    "month": "2026-03"
  },
  {
    "category": "violent-crime",
    "street": "On or near Blackthorn Close",
    "lat": 51.411747,
    "lng": -2.597247,
    "month": "2026-03"
  },
  {
    "category": "violent-crime",
    "street": "On or near Avon Road",
    "lat": 51.41721,
    "lng": -2.615394,
    "month": "2026-03"
  },
  {
    "category": "violent-crime",
    "street": "On or near Avon Road",
    "lat": 51.41721,
    "lng": -2.615394,
    "month": "2026-03"
  },
  {
    "category": "violent-crime",
    "street": "On or near Avon Road",
    "lat": 51.41721,
    "lng": -2.615394,
    "month": "2026-03"
  },
  {
    "category": "violent-crime",
    "street": "On or near Farnaby Close",
    "lat": 51.419686,
    "lng": -2.598975,
    "month": "2026-03"
  },
  {
    "category": "violent-crime",
    "street": "On or near Gatehouse Close",
    "lat": 51.411657,
    "lng": -2.614528,
    "month": "2026-03"
  },
  {
    "category": "violent-crime",
    "street": "On or near Bishops Cove",
    "lat": 51.412107,
    "lng": -2.621278,
    "month": "2026-03"
  },
  {
    "category": "violent-crime",
    "street": "On or near Tyntesfield Road",
    "lat": 51.422879,
    "lng": -2.617972,
    "month": "2026-03"
  },
  {
    "category": "violent-crime",
    "street": "On or near Gatehouse Close",
    "lat": 51.411657,
    "lng": -2.614528,
    "month": "2026-03"
  },
  {
    "category": "violent-crime",
    "street": "On or near Langford Road",
    "lat": 51.423726,
    "lng": -2.621033,
    "month": "2026-03"
  },
  {
    "category": "violent-crime",
    "street": "On or near Langford Road",
    "lat": 51.423726,
    "lng": -2.621033,
    "month": "2026-03"
  },
  {
    "category": "violent-crime",
    "street": "On or near Langford Road",
    "lat": 51.423726,
    "lng": -2.621033,
    "month": "2026-03"
  },
  {
    "category": "violent-crime",
    "street": "On or near Mill Paddock",
    "lat": 51.412599,
    "lng": -2.608157,
    "month": "2026-03"
  },
  {
    "category": "violent-crime",
    "street": "On or near Colemead",
    "lat": 51.41371,
    "lng": -2.61237,
    "month": "2026-03"
  },
  {
    "category": "violent-crime",
    "street": "On or near Mow Barton",
    "lat": 51.415665,
    "lng": -2.626906,
    "month": "2026-03"
  },
  {
    "category": "violent-crime",
    "street": "On or near Fulford Road",
    "lat": 51.409554,
    "lng": -2.600539,
    "month": "2026-03"
  },
  {
    "category": "violent-crime",
    "street": "On or near Wrington Crescent",
    "lat": 51.422562,
    "lng": -2.616717,
    "month": "2026-03"
  },
  {
    "category": "violent-crime",
    "street": "On or near Poole Close",
    "lat": 51.412067,
    "lng": -2.603247,
    "month": "2026-03"
  },
  {
    "category": "violent-crime",
    "street": "On or near Vicarage Road",
    "lat": 51.417852,
    "lng": -2.619745,
    "month": "2026-03"
  },